[{"id":2382,"name":"8 Teen","street":"v/Heidi Meldgaard Rosenholmvej 18","zip_city":" 8543 Hornslet","phone":"86995900","email":null,"lng_lat":"56.3163856,10.3214761","body":null,"created_at":"2014-11-14T11:54:44.000Z","updated_at":"2014-11-14T12:01:57.000Z"},{"id":2383,"name":"A.I. Hansen","street":"Torvegade 38","zip_city":" 7100 Vejle","phone":"75820470","email":null,"lng_lat":"55.70962129999999,9.533512499999999","body":null,"created_at":"2014-11-14T11:54:44.000Z","updated_at":"2014-11-14T12:02:02.000Z"},{"id":2384,"name":"Abel Spendabel","street":"v/Karina Romby Madsen Østergade 9","zip_city":" 7620 Lemvig","phone":"97821200","email":null,"lng_lat":"56.5501805,8.3106405","body":null,"created_at":"2014-11-14T11:54:44.000Z","updated_at":"2014-11-14T12:02:07.000Z"},{"id":2385,"name":"Abovo ApS","street":"Møllegade 2","zip_city":" 6900 Skjern","phone":"97350405","email":null,"lng_lat":"55.9484562,8.494075100000002","body":null,"created_at":"2014-11-14T11:54:44.000Z","updated_at":"2014-11-14T12:02:13.000Z"},{"id":2386,"name":"Amoc","street":"v/Lone Ahrentoft Hansen Vendersgade 21","zip_city":" 7000 Fredericia","phone":"75926033","email":null,"lng_lat":"55.5661324,9.7548031","body":null,"created_at":"2014-11-14T11:54:44.000Z","updated_at":"2014-11-14T12:02:18.000Z"},{"id":2387,"name":"Anja Banja","street":"v/Dybdahl Invest ApS Rosenvangs Alle 249","zip_city":" 8270 Højbjerg","phone":"86100550","email":null,"lng_lat":"56.1165706,10.2064628","body":null,"created_at":"2014-11-14T11:54:44.000Z","updated_at":"2014-11-14T12:02:23.000Z"},{"id":2388,"name":"Ann K­Kidswear","street":"v/Carina Elena Aarhus Mellem Dammen 18","zip_city":" 6760 Ribe","phone":"35140550","email":null,"lng_lat":"55.326936,8.774665","body":null,"created_at":"2014-11-14T11:54:44.000Z","updated_at":"2014-11-14T12:02:28.000Z"},{"id":2389,"name":"Asmussen \u0026 Sønner","street":"v/Jens Erik Hvitved Asmussen Sct. Hansgade 10","zip_city":" 4100 Ringsted","phone":"57610062","email":null,"lng_lat":"55.4446733,11.7893861","body":null,"created_at":"2014-11-14T11:54:44.000Z","updated_at":"2014-11-14T12:02:33.000Z"},{"id":2390,"name":"Ayoe ́s","street":"V/Ayoe Jensen Vestergade 2","zip_city":" 7361 Ejstrupholm","phone":"75772024","email":null,"lng_lat":"55.984024,9.290170999999999","body":null,"created_at":"2014-11-14T11:54:44.000Z","updated_at":"2014-11-14T12:02:39.000Z"},{"id":2391,"name":"Baby Sam","street":"v/Greta Jørgensen Storegade 52","zip_city":" 6800 Varde","phone":"75221730","email":null,"lng_lat":"55.622705,8.482596899999999","body":null,"created_at":"2014-11-14T11:54:44.000Z","updated_at":"2014-11-14T12:02:44.000Z"},{"id":2392,"name":"Bad Boys \u0026 Bad Girls","street":"v/Nielsen \u0026 Nielsen City 2 ApS Butik 372","zip_city":" plan 3","phone":"43520880","email":null,"lng_lat":null,"body":null,"created_at":"2014-11-14T11:54:44.000Z","updated_at":"2014-11-14T11:54:44.000Z"},{"id":2393,"name":"Bad Boys Bad Girls","street":" Søndergade 14","zip_city":"8700 Horsens","phone":"24249434","email":null,"lng_lat":"55.86175009999999,9.8468691","body":null,"created_at":"2014-11-14T11:54:44.000Z","updated_at":"2014-11-14T12:02:54.000Z"},{"id":2394,"name":"BE STARS","street":"v/G. Thomsen Casinotorvet 6","zip_city":" 4200 Slagelse","phone":"58533212","email":null,"lng_lat":"55.405249,11.35453","body":null,"created_at":"2014-11-14T11:54:44.000Z","updated_at":"2014-11-14T12:02:59.000Z"},{"id":2395,"name":"BE STARS","street":"v/Gitte Thomsen Torvestræde 17","zip_city":"4700 Næstved DK","phone":"55720642","email":null,"lng_lat":"55.230137,11.760338","body":null,"created_at":"2014-11-14T11:54:44.000Z","updated_at":"2014-11-14T12:03:05.000Z"},{"id":2396,"name":"BE STARS","street":"v/Gitte Thomsen Elmegade 11 A","zip_city":" 4400 Kalundborg DK","phone":"59560205","email":null,"lng_lat":"55.6793213,11.0987845","body":null,"created_at":"2014-11-14T11:54:44.000Z","updated_at":"2014-11-14T12:03:10.000Z"},{"id":2397,"name":"BE STARS","street":"v/Gitte Thomsen Rødovre Centrum 181","zip_city":" 2610 Rødovre","phone":"36701076","email":null,"lng_lat":"55.6789479,12.4580981","body":null,"created_at":"2014-11-14T11:54:44.000Z","updated_at":"2014-11-14T12:03:15.000Z"},{"id":2398,"name":"BeeCool afd. HoB","street":"Bytorv Horsens Søndergade 14","zip_city":" 8700 Horsens","phone":"28717321","email":null,"lng_lat":"55.86175009999999,9.8468691","body":null,"created_at":"2014-11-14T11:54:44.000Z","updated_at":"2014-11-14T12:03:20.000Z"},{"id":2399,"name":"Betweens I/S","street":"Finlandsgade 17","zip_city":" 8200 Aarhus N","phone":null,"email":null,"lng_lat":"56.17108899999999,10.189372","body":null,"created_at":"2014-11-14T11:54:44.000Z","updated_at":"2014-11-14T12:03:26.000Z"},{"id":2400,"name":"Betweens I/S","street":"Kattesundet 5A","zip_city":" 5700 Svendborg","phone":null,"email":null,"lng_lat":"55.0590684,10.6093771","body":null,"created_at":"2014-11-14T11:54:44.000Z","updated_at":"2014-11-14T12:03:31.000Z"},{"id":2401,"name":"Betweens I/S","street":"Ramsherred 44 A","zip_city":" 6200 Aabenraa","phone":null,"email":null,"lng_lat":"55.0449432,9.4186888","body":null,"created_at":"2014-11-14T11:54:44.000Z","updated_at":"2014-11-14T12:03:36.000Z"},{"id":2402,"name":"Betweens I/S","street":"Bryggen","zip_city":" 6200 Aabenraa","phone":"58034908","email":null,"lng_lat":"54.9196007,9.6011557","body":null,"created_at":"2014-11-14T11:54:44.000Z","updated_at":"2014-11-14T12:03:41.000Z"},{"id":2403,"name":"Betweens I/S","street":"Storegade 23","zip_city":" 6100 Haderslev","phone":"58034908","email":null,"lng_lat":"55.2518624,9.4840433","body":null,"created_at":"2014-11-14T11:54:44.000Z","updated_at":"2014-11-14T12:03:46.000Z"},{"id":2404,"name":"Betweens I/S","street":"Storegade 23","zip_city":" 6100 Haderslev","phone":"74822869","email":null,"lng_lat":"55.2518624,9.4840433","body":null,"created_at":"2014-11-14T11:54:44.000Z","updated_at":"2014-11-14T12:03:51.000Z"},{"id":2405,"name":"Betweens I/S","street":"Jernbanegade 26","zip_city":" 6400 Sønderborg","phone":"74430640","email":null,"lng_lat":"54.9103783,9.7916502","body":null,"created_at":"2014-11-14T11:54:44.000Z","updated_at":"2014-11-14T12:03:56.000Z"},{"id":2406,"name":"Betweens I/S","street":"Kattesundet 5A","zip_city":" 5700 Svendbor","phone":"30504065","email":null,"lng_lat":"55.0590684,10.6093771","body":null,"created_at":"2014-11-14T11:54:44.000Z","updated_at":"2014-11-14T12:04:01.000Z"},{"id":2407,"name":"Betweens I/S","street":"Jernbanegade 26","zip_city":" 6400 Sønderbor","phone":"30504065","email":null,"lng_lat":"54.9103783,9.7916502","body":null,"created_at":"2014-11-14T11:54:44.000Z","updated_at":"2014-11-14T12:04:07.000Z"},{"id":2408,"name":"Betweens I/S","street":"Bryggen","zip_city":" 6400 Sønderbor","phone":"75803490","email":null,"lng_lat":"54.9196007,9.6011557","body":null,"created_at":"2014-11-14T11:54:44.000Z","updated_at":"2014-11-14T12:04:12.000Z"},{"id":2409,"name":"Betweens I/S","street":"Ramsherred 44 A","zip_city":" 6200 Aabenraa","phone":"74620903","email":null,"lng_lat":"55.0449432,9.4186888","body":null,"created_at":"2014-11-14T11:54:45.000Z","updated_at":"2014-11-14T12:04:17.000Z"},{"id":2410,"name":"Betweens I/S","street":"Finlandsgade 17","zip_city":" 8200 Aarhus ","phone":"22843332","email":null,"lng_lat":"56.17108899999999,10.189372","body":null,"created_at":"2014-11-14T11:54:45.000Z","updated_at":"2014-11-14T12:04:22.000Z"},{"id":2411,"name":"Betweens I/S *BLOKORDRE*","street":"Jernbanegade 26","zip_city":" 6400 Sønderbor","phone":null,"email":null,"lng_lat":"54.9103783,9.7916502","body":null,"created_at":"2014-11-14T11:54:45.000Z","updated_at":"2014-11-14T12:04:28.000Z"},{"id":2412,"name":"Bjørnegrotten (pr.post)","street":"v/Ole Byskov Rosensgade 45","zip_city":" 8300 Odder","phone":"86543788","email":null,"lng_lat":"55.97204,10.14417","body":null,"created_at":"2014-11-14T11:54:45.000Z","updated_at":"2014-11-14T12:04:33.000Z"},{"id":2413,"name":"Blue Music A/S","street":"Blåvandvej 8 B","zip_city":" 6857 Blåvand","phone":"76540400","email":null,"lng_lat":"55.5550876,8.1290055","body":null,"created_at":"2014-11-14T11:54:45.000Z","updated_at":"2014-11-14T12:04:38.000Z"},{"id":2414,"name":"Bogi","street":"v/Toftegaard Textil A/S Banegårdspladsen 7","zip_city":" 8850 Bjerringbro","phone":"86680206","email":null,"lng_lat":"56.3746963,9.6580789","body":null,"created_at":"2014-11-14T11:54:45.000Z","updated_at":"2014-11-14T12:04:43.000Z"},{"id":2415,"name":"Boutiq Vicvaq","street":"v/Jan Laursen Jyllandsgade 43","zip_city":" 7000 Fredericia","phone":"76141300","email":null,"lng_lat":"55.5657149,9.757908","body":null,"created_at":"2014-11-14T11:54:45.000Z","updated_at":"2014-11-14T12:04:48.000Z"},{"id":2416,"name":"Boys \u0026 Girls","street":"v/Ketty Mikkelsen Hovedgaden 41","zip_city":" 8410 Rønde DK","phone":"86370190","email":null,"lng_lat":"56.3004374,10.4768445","body":null,"created_at":"2014-11-14T11:54:45.000Z","updated_at":"2014-11-14T12:04:53.000Z"},{"id":2417,"name":"Brumbassen","street":"v/Elisabeth Hylleberg Mikkelsen Adelgade 87","zip_city":" 8660 Skanderborg","phone":"86202029","email":null,"lng_lat":"56.03536399999999,9.931049999999999","body":null,"created_at":"2014-11-14T11:54:45.000Z","updated_at":"2014-11-14T12:04:58.000Z"},{"id":2418,"name":"Bruun","street":"Kræmmergade 13","zip_city":" 6800 Varde","phone":"75221530","email":null,"lng_lat":"55.6207366,8.482429699999999","body":null,"created_at":"2014-11-14T11:54:45.000Z","updated_at":"2014-11-14T12:05:04.000Z"},{"id":2419,"name":"Bruun Herretøj","street":"Storegade 19","zip_city":" 6862 Tistrup","phone":"75299092","email":null,"lng_lat":"55.71665400000001,8.601341","body":null,"created_at":"2014-11-14T11:54:45.000Z","updated_at":"2014-11-14T12:05:09.000Z"},{"id":2420,"name":"Busborg ApS","street":"Vestergade 13","zip_city":" 4930 Maribo","phone":"54780135","email":null,"lng_lat":"54.774176,11.498753","body":null,"created_at":"2014-11-14T11:54:45.000Z","updated_at":"2014-11-14T12:05:14.000Z"},{"id":2421,"name":"Butik 3 Tøj","street":"v/Randi Dalsgaard Andersen Østergade 25","zip_city":" 6580 Vamdrup","phone":"75581287","email":null,"lng_lat":"55.4248914,9.2864911","body":null,"created_at":"2014-11-14T11:54:45.000Z","updated_at":"2014-11-14T12:05:19.000Z"},{"id":2422,"name":"Butik Amalie","street":"v/Tina Kristensen Søndergade 31","zip_city":" 6520 Toftlund","phone":"74831991","email":null,"lng_lat":"55.189544,9.065291","body":null,"created_at":"2014-11-14T11:54:45.000Z","updated_at":"2014-11-14T12:05:25.000Z"},{"id":2423,"name":"Butik Dea","street":"v/Milan Marinovic Algade 26","zip_city":" 5750 Ringe","phone":"62621012","email":null,"lng_lat":"55.23631,10.478456","body":null,"created_at":"2014-11-14T11:54:45.000Z","updated_at":"2014-11-14T12:05:30.000Z"},{"id":2424,"name":"Butik Dorthe","street":"Aftensang 8 B","zip_city":" 6040 Egtve","phone":"75551900","email":null,"lng_lat":"55.6193517,9.3084981","body":null,"created_at":"2014-11-14T11:54:45.000Z","updated_at":"2014-11-14T12:05:35.000Z"},{"id":2425,"name":"Butik T","street":"v/Tina Bank Vennervej 23","zip_city":" 6950 Ringkøbing DK","phone":"97325352","email":null,"lng_lat":"56.03798,8.319682","body":null,"created_at":"2014-11-14T11:54:45.000Z","updated_at":"2014-11-14T12:05:40.000Z"},{"id":2426,"name":"Butik Unique","street":"v/Rikke Højfeldt Hovedgaden 4 B","zip_city":" 4330 Hvalsø DK","phone":"46408541","email":null,"lng_lat":"55.5944695,11.8622988","body":null,"created_at":"2014-11-14T11:54:45.000Z","updated_at":"2014-11-14T12:05:45.000Z"},{"id":2427,"name":"Butik-n Boys \u0026 Girls","street":"v/Damu A/S Nørregade 9","zip_city":" 7200 Grindsted DK","phone":"29115676","email":null,"lng_lat":"55.7584356,8.927339100000001","body":null,"created_at":"2014-11-14T11:54:45.000Z","updated_at":"2014-11-14T12:05:51.000Z"},{"id":2428,"name":"Butler Bruuns Galleri","street":"M.P. Bruuns Gade 25","zip_city":"8000 Aarhus C","phone":"86202340","email":null,"lng_lat":"56.149037,10.203348","body":null,"created_at":"2014-11-14T11:54:45.000Z","updated_at":"2014-11-14T12:05:56.000Z"},{"id":2429,"name":"Byens Børn","street":"Nørregade 5","zip_city":"8660 Skanderborg","phone":null,"email":null,"lng_lat":"56.039626,9.929483","body":null,"created_at":"2014-11-14T11:54:45.000Z","updated_at":"2014-11-14T12:06:01.000Z"},{"id":2430,"name":"Børn i Focus","street":"v/Susanne Holm Bymidten 10","zip_city":" 3500 Værløse","phone":"44482483","email":null,"lng_lat":"55.784805,12.372963","body":null,"created_at":"2014-11-14T11:54:45.000Z","updated_at":"2014-11-14T12:06:06.000Z"},{"id":2431,"name":"Børnebazar","street":"v/Vibeke Nagel Nørreport 7","zip_city":" 6200 Aabenraa","phone":"74625580","email":null,"lng_lat":"55.04810699999999,9.419032","body":null,"created_at":"2014-11-14T11:54:45.000Z","updated_at":"2014-11-14T12:06:11.000Z"},{"id":2432,"name":"Børnebiksen","street":"v/Svend Erik Nielsen Ole Rømers Vej 18","zip_city":" 8670 Låsby","phone":"86952022","email":null,"lng_lat":"56.152688,9.817366999999999","body":null,"created_at":"2014-11-14T11:54:45.000Z","updated_at":"2014-11-14T12:06:17.000Z"},{"id":2433,"name":"Børnefryd","street":"v/All 4 Living I/S Rosensgade 45","zip_city":" 8300 Odder","phone":"86558604","email":null,"lng_lat":"55.97204,10.14417","body":null,"created_at":"2014-11-14T11:54:45.000Z","updated_at":"2014-11-14T12:06:22.000Z"},{"id":2434,"name":"Børnekompag9et ApS","street":"City Vest","zip_city":" 8220 Brabrand","phone":"86125456","email":null,"lng_lat":"56.15305499999999,10.136486","body":null,"created_at":"2014-11-14T11:54:45.000Z","updated_at":"2014-11-14T12:06:27.000Z"},{"id":2435,"name":"Børnekompag9et ApS","street":"Kølsmosevej 21","zip_city":" 8361 Hasselage","phone":"27270037","email":null,"lng_lat":"56.092472,10.094542","body":null,"created_at":"2014-11-14T11:54:45.000Z","updated_at":"2014-11-14T12:06:32.000Z"},{"id":2436,"name":"Børnekompag9et ApS","street":"Lykkesholms Alle 45","zip_city":" 8260 Viby J￼","phone":"86145454","email":null,"lng_lat":"56.13271659999999,10.1630608","body":null,"created_at":"2014-11-14T11:54:45.000Z","updated_at":"2014-11-14T12:06:37.000Z"},{"id":2437,"name":"Børneshoppen","street":"v/Anette L. Lorenzen Markedsgade 9","zip_city":" 6240 Løgumkloster","phone":"74745222","email":null,"lng_lat":"55.0600828,8.949769800000002","body":null,"created_at":"2014-11-14T11:54:45.000Z","updated_at":"2014-11-14T12:06:42.000Z"},{"id":2438,"name":"Carsten A. ApS","street":"Torvegade 15","zip_city":" 7100 Vejle","phone":"75826100","email":null,"lng_lat":"55.7094283,9.5331269","body":null,"created_at":"2014-11-14T11:54:45.000Z","updated_at":"2014-11-14T12:06:48.000Z"},{"id":2439,"name":"Casa Bambino","street":"v/Henrik Krog Vestemsborg Allé 48","zip_city":" 4800 Nykøbing F","phone":"23435249","email":null,"lng_lat":"54.76542200000001,11.875492","body":null,"created_at":"2014-11-14T11:54:45.000Z","updated_at":"2014-11-14T12:06:53.000Z"},{"id":2440,"name":"Check Point","street":"v/Lone Bach Bleher Odelsgade 38","zip_city":" 7130 Juelsminde","phone":"75693333","email":null,"lng_lat":"55.7147652,10.0108592","body":null,"created_at":"2014-11-14T11:54:45.000Z","updated_at":"2014-11-14T12:06:58.000Z"},{"id":2441,"name":"Chilli","street":"V/Betina Meilandt Jyllandsgade 39","zip_city":" 7000 Fredericia","phone":"75928481","email":null,"lng_lat":"55.565713,9.7571461","body":null,"created_at":"2014-11-14T11:54:45.000Z","updated_at":"2014-11-14T12:07:03.000Z"},{"id":2442,"name":"Christina K. Larsen","street":"v/forretningen Kid's Hesselbjergvej 18","zip_city":" 7323 Give","phone":"75732294","email":null,"lng_lat":"55.891389,9.1995729","body":null,"created_at":"2014-11-14T11:54:45.000Z","updated_at":"2014-11-14T12:07:08.000Z"},{"id":2443,"name":"Cool","street":"v/Jakson ApS Østergade 6","zip_city":" 8600 Silkeborg","phone":"86815063","email":null,"lng_lat":"56.1702232,9.551000799999999","body":null,"created_at":"2014-11-14T11:54:45.000Z","updated_at":"2014-11-14T12:07:14.000Z"},{"id":2444,"name":"Cool","street":"v/Karin Pedersen Nørregade 17 B","zip_city":" 6600 Vejen DK","phone":"75365511","email":null,"lng_lat":"55.4767919,9.1382044","body":null,"created_at":"2014-11-14T11:54:45.000Z","updated_at":"2014-11-14T12:07:19.000Z"},{"id":2445,"name":"Cool","street":"v/Karin Pedersen Tinnetvej 31","zip_city":" 7173 Vonge DK","phone":"75803374","email":null,"lng_lat":"55.865158,9.416216","body":null,"created_at":"2014-11-14T11:54:45.000Z","updated_at":"2014-11-14T12:07:24.000Z"},{"id":2446,"name":"Cool","street":"v/Karin Pedersen Nørregade 5","zip_city":" 7200 Grindsted","phone":"75333490","email":null,"lng_lat":"55.7580663,8.9274712","body":null,"created_at":"2014-11-14T11:54:45.000Z","updated_at":"2014-11-14T12:07:29.000Z"},{"id":2447,"name":"Cool","street":"v/Karin Pedersen Odelsgade 46","zip_city":" 7130 Juelsminde","phone":"58033741","email":null,"lng_lat":"55.71495419999999,10.0098647","body":null,"created_at":"2014-11-14T11:54:45.000Z","updated_at":"2014-11-14T12:07:34.000Z"},{"id":2448,"name":"Cool ApS","street":"Smedegade 24","zip_city":" 6700 Esbjerg","phone":"75459709","email":null,"lng_lat":"55.4671041,8.446095099999999","body":null,"created_at":"2014-11-14T11:54:45.000Z","updated_at":"2014-11-14T12:07:40.000Z"},{"id":2449,"name":"Coster Minder","street":"Norgesgade 5","zip_city":" 7430 Ikast","phone":"40261272","email":null,"lng_lat":"56.1392912,9.167533299999999","body":null,"created_at":"2014-11-14T11:54:45.000Z","updated_at":"2014-11-14T12:07:45.000Z"},{"id":2450,"name":"Creme Fraiche ApS","street":"City Vest","zip_city":"8220 Brabrand","phone":"86257733","email":null,"lng_lat":"56.15305499999999,10.136486","body":null,"created_at":"2014-11-14T11:54:45.000Z","updated_at":"2014-11-14T12:07:50.000Z"},{"id":2451,"name":"Creme Fraiche ApS","street":"Kirkevænget 5­7","zip_city":"7500 Holstebro","phone":"97435781","email":null,"lng_lat":null,"body":null,"created_at":"2014-11-14T11:54:45.000Z","updated_at":"2014-11-14T11:54:45.000Z"},{"id":2452,"name":"Dansk Outlet Ikast ApS","street":"Eli Christensensvej 25","zip_city":" 7430 Ikast","phone":"96606700","email":null,"lng_lat":"56.136371,9.154596999999999","body":null,"created_at":"2014-11-14T11:54:45.000Z","updated_at":"2014-11-14T12:08:00.000Z"},{"id":2453,"name":"DFO BLOKORDRE","street":"Eli Christensens Vej 25","zip_city":" 7430 Ikast","phone":null,"email":null,"lng_lat":"56.13854420000001,9.1364117","body":null,"created_at":"2014-11-14T11:54:45.000Z","updated_at":"2014-11-14T12:08:06.000Z"},{"id":2454,"name":"DFO Frederikshavn Aps","street":"Havnegade 9­11","zip_city":" 9900 Frederikshavn","phone":"40301151","email":null,"lng_lat":"57.442711,10.521006","body":null,"created_at":"2014-11-14T11:54:45.000Z","updated_at":"2014-11-14T12:08:11.000Z"},{"id":2455,"name":"DFO Helsingør ApS","street":"Prøvestensvej 26","zip_city":" 3000 Helsingør","phone":"20977319","email":null,"lng_lat":"56.01851079999999,12.570562","body":null,"created_at":"2014-11-14T11:54:45.000Z","updated_at":"2014-11-14T12:08:16.000Z"},{"id":2456,"name":"DFO Herning","street":"Herning ApS Valløvej 2","zip_city":" Tjørring","phone":"20161697","email":null,"lng_lat":"56.138557,8.967322","body":null,"created_at":"2014-11-14T11:54:45.000Z","updated_at":"2014-11-14T12:08:21.000Z"},{"id":2458,"name":"DFO Korsør ApS","street":"v/Carnet A/S Motalavej 147­149","zip_city":" 4220 Korsør DK","phone":"53600251","email":null,"lng_lat":"55.32576299999999,11.14939","body":null,"created_at":"2014-11-14T11:54:45.000Z","updated_at":"2014-11-14T12:08:31.000Z"},{"id":2459,"name":"DFO Langeskov ApS","street":"Håndværkervej 1","zip_city":" 5550 Langeskov","phone":"40709405","email":null,"lng_lat":"55.358845,10.570922","body":null,"created_at":"2014-11-14T11:54:45.000Z","updated_at":"2014-11-14T12:08:37.000Z"},{"id":2460,"name":"DFO Mariager","street":"Industrivej 6","zip_city":"9550 Mariager","phone":"98550999","email":null,"lng_lat":"56.677088,10.067697","body":null,"created_at":"2014-11-14T11:54:45.000Z","updated_at":"2014-11-14T12:08:42.000Z"},{"id":2461,"name":"DFO Nykøbing Mors","street":"Nørrebro 174","zip_city":" 7900 Nykøbing M","phone":"28218907","email":null,"lng_lat":"56.80574799999999,8.849828","body":null,"created_at":"2014-11-14T11:54:45.000Z","updated_at":"2014-11-14T12:08:47.000Z"},{"id":2462,"name":"DFO Rønne Bornholm ApS","street":"Ved Lunden 8","zip_city":" 3700 Rønne","phone":"56950032","email":null,"lng_lat":"55.094729,14.712848","body":null,"created_at":"2014-11-14T11:54:45.000Z","updated_at":"2014-11-14T12:08:52.000Z"},{"id":2463,"name":"DFO Tarm ApS","street":"Centervej 1­5","zip_city":" 6880 Tarm","phone":"30482735","email":null,"lng_lat":null,"body":null,"created_at":"2014-11-14T11:54:45.000Z","updated_at":"2014-11-14T11:54:45.000Z"},{"id":2464,"name":"DFO Tilst Aps","street":"Anelystparken 13","zip_city":" 8381 Tils","phone":"86225202","email":null,"lng_lat":"56.181176,10.098531","body":null,"created_at":"2014-11-14T11:54:45.000Z","updated_at":"2014-11-14T12:09:03.000Z"},{"id":2465,"name":"DFO Vejle ApS","street":"Andkærvej 8","zip_city":" 7100 Vejle","phone":"97126800","email":null,"lng_lat":"55.674506,9.587888999999999","body":null,"created_at":"2014-11-14T11:54:45.000Z","updated_at":"2014-11-14T12:09:08.000Z"},{"id":2466,"name":"DFO Viborg","street":"Viborg ApS Holstebrovej 81","zip_city":" 8800 Viborg","phone":"53362871","email":null,"lng_lat":"56.4475861,9.3663683","body":null,"created_at":"2014-11-14T11:54:45.000Z","updated_at":"2014-11-14T12:09:13.000Z"},{"id":2467,"name":"Din Tøjmand","street":"Bredgade 12","zip_city":" 8560 Kolind","phone":null,"email":null,"lng_lat":"56.361784,10.587892","body":null,"created_at":"2014-11-14T11:54:45.000Z","updated_at":"2014-11-14T12:09:18.000Z"},{"id":2468,"name":"Din Tøjmand","street":"Vestergade 1","zip_city":" 7323 Give","phone":"75735454","email":null,"lng_lat":"55.8448923,9.2368653","body":null,"created_at":"2014-11-14T11:54:45.000Z","updated_at":"2014-11-14T12:09:23.000Z"},{"id":2469,"name":"Din Tøjmand","street":"Storegade 27 A","zip_city":" 6200 Aabenra","phone":"74648001","email":null,"lng_lat":"55.0435226,9.4189449","body":null,"created_at":"2014-11-14T11:54:45.000Z","updated_at":"2014-11-14T12:09:28.000Z"},{"id":2470,"name":"Din Tøjmand Bisgaard","street":"Rådhuscenteret ","zip_city":"9640 Farsø","phone":"98631435","email":null,"lng_lat":"56.7719124,9.3409104","body":null,"created_at":"2014-11-14T11:54:45.000Z","updated_at":"2014-11-14T12:09:34.000Z"},{"id":2471,"name":"Din TøjMand Bolander","street":"Rådhus Centret 35","zip_city":" 6500 Vojens","phone":"74541626","email":null,"lng_lat":"55.24562599999999,9.2922239","body":null,"created_at":"2014-11-14T11:54:45.000Z","updated_at":"2014-11-14T12:09:39.000Z"},{"id":2472,"name":"Din Tøjmand Bramming ApS","street":"Nørregade 1","zip_city":" 6740 Bramming","phone":"75173037","email":null,"lng_lat":"55.465215,8.7007239","body":null,"created_at":"2014-11-14T11:54:45.000Z","updated_at":"2014-11-14T12:09:44.000Z"},{"id":2473,"name":"Din Tøjmand Centrum Tøj ApS","street":"Nørregade 3","zip_city":" 8464 Galten","phone":"86945533","email":null,"lng_lat":"56.1556405,9.903346400000002","body":null,"created_at":"2014-11-14T11:54:45.000Z","updated_at":"2014-11-14T12:09:49.000Z"},{"id":2474,"name":"Din Tøjmand Centrum Tøj ApS","street":"Torvegade 5A","zip_city":" 8450 Hammel D","phone":"86962374","email":null,"lng_lat":"56.255784,9.86584","body":null,"created_at":"2014-11-14T11:54:45.000Z","updated_at":"2014-11-14T12:09:54.000Z"},{"id":2475,"name":"Din Tøjmand Frank","street":"Bredgade 2","zip_city":" 6630 Rødding","phone":"74841948","email":null,"lng_lat":"55.3682867,9.0565603","body":null,"created_at":"2014-11-14T11:54:45.000Z","updated_at":"2014-11-14T12:10:00.000Z"},{"id":2476,"name":"Din Tøjmand Højhus \u0026 Wejrup","street":"Storgade 15","zip_city":" 6880 Tar","phone":"97371377","email":null,"lng_lat":null,"body":null,"created_at":"2014-11-14T11:54:45.000Z","updated_at":"2014-11-14T11:54:45.000Z"},{"id":2477,"name":"Din Tøjmand Michael","street":"v/Michael Nielsen Butikstorvet 6","zip_city":" 7190 Billund","phone":"76500770","email":null,"lng_lat":"55.730283,9.116109","body":null,"created_at":"2014-11-14T11:54:45.000Z","updated_at":"2014-11-14T12:10:10.000Z"},{"id":2478,"name":"Din TøjMand Olesen","street":"Bredgade 16","zip_city":" 8740 Brædstru","phone":"75751069","email":null,"lng_lat":"55.9734311,9.612131800000002","body":null,"created_at":"2014-11-14T11:54:45.000Z","updated_at":"2014-11-14T12:10:15.000Z"},{"id":2479,"name":"Din Tøjmand Silkeborg","street":"Søndergade 6","zip_city":" 8600 Silkeborg","phone":"86828800","email":null,"lng_lat":"56.1683159,9.5498376","body":null,"created_at":"2014-11-14T11:54:45.000Z","updated_at":"2014-11-14T12:10:20.000Z"},{"id":2480,"name":"Din TøjMand Tøj til hele fam.","street":"Kræmmergade 13","zip_city":" 6800 Vard","phone":"75221555","email":null,"lng_lat":null,"body":null,"created_at":"2014-11-14T11:54:45.000Z","updated_at":"2014-11-14T11:54:45.000Z"},{"id":2481,"name":"Din Tøjmand Victor","street":"Bruuns Galleri Nr. 529","zip_city":" 8000 Aarhus C","phone":"86195319","email":null,"lng_lat":null,"body":null,"created_at":"2014-11-14T11:54:45.000Z","updated_at":"2014-11-14T11:54:45.000Z"},{"id":2482,"name":"Din Tøjmand, Faxe","street":"Torvegade 8 B+C","zip_city":" 4640 Fakse D","phone":"56713480","email":null,"lng_lat":"55.2568382,12.1205097","body":null,"created_at":"2014-11-14T11:54:45.000Z","updated_at":"2014-11-14T12:10:36.000Z"},{"id":2483,"name":"Din Tøjmand, Kolind","street":"Bredgade 12","zip_city":" 8560 Kolind","phone":"86391052","email":null,"lng_lat":"56.361784,10.587892","body":null,"created_at":"2014-11-14T11:54:45.000Z","updated_at":"2014-11-14T12:10:41.000Z"},{"id":2484,"name":"Diverse","street":"v/Henrik W. Nielsen Skovhøjen 7","zip_city":" 8400 Ebeltoft DK","phone":"34107700","email":null,"lng_lat":"56.1862423,10.6758785","body":null,"created_at":"2014-11-14T11:54:45.000Z","updated_at":"2014-11-14T12:10:46.000Z"},{"id":2485,"name":"Double Trouble 8­16 ApS","street":"Kalvebod Brygge 59","zip_city":" 1560 København V","phone":"60601338","email":null,"lng_lat":"55.6626556,12.5621265","body":null,"created_at":"2014-11-14T11:54:45.000Z","updated_at":"2014-11-14T12:10:51.000Z"},{"id":2486,"name":"Erik F.","street":"Søndergade 4","zip_city":" 6650 Brøru","phone":"75383038","email":null,"lng_lat":"55.4825534,9.017977799999999","body":null,"created_at":"2014-11-14T11:54:45.000Z","updated_at":"2014-11-14T12:10:56.000Z"},{"id":2487,"name":"Erik Frøkjær­Jensen ApS","street":"Tempovej 34","zip_city":" 2750 Ballerup","phone":"44661204","email":null,"lng_lat":"55.72396699999999,12.374147","body":null,"created_at":"2014-11-14T11:54:45.000Z","updated_at":"2014-11-14T12:11:02.000Z"},{"id":2488,"name":"Family Shop ApS","street":"Industriområdet 5","zip_city":" 8732 Hovedgår","phone":"75662099","email":null,"lng_lat":null,"body":null,"created_at":"2014-11-14T11:54:45.000Z","updated_at":"2014-11-14T11:54:45.000Z"},{"id":2489,"name":"Family Shop ApS, Cool lukket","street":"Industriområdet 5","zip_city":" 8732 Hovedgård","phone":"86542199","email":null,"lng_lat":"55.937242,9.955957999999999","body":null,"created_at":"2014-11-14T11:54:45.000Z","updated_at":"2014-11-14T12:11:12.000Z"},{"id":2490,"name":"Fiocco","street":"v/Mette Østergaard Storegade 11","zip_city":" 8382 Hinnerup","phone":"86961119","email":null,"lng_lat":"56.2650449,10.0622678","body":null,"created_at":"2014-11-14T11:54:45.000Z","updated_at":"2014-11-14T12:11:17.000Z"},{"id":2491,"name":"Flying Rabbit","street":"v/Marcus og Gnist Fredericia ApS Vendersgade 18","zip_city":" 7000 Fredericia","phone":"75931933","email":null,"lng_lat":"55.5666991,9.7545518","body":null,"created_at":"2014-11-14T11:54:45.000Z","updated_at":"2014-11-14T12:11:23.000Z"},{"id":2492,"name":"Fru Pigalop","street":"v/Jens Peter Mortensen Hovedgaden 54","zip_city":" 6720 Fanø","phone":"75166660","email":null,"lng_lat":"55.44583000000001,8.40484","body":null,"created_at":"2014-11-14T11:54:45.000Z","updated_at":"2014-11-14T12:11:28.000Z"},{"id":2493,"name":"Frøken Milla","street":"v/Rikke Schøber Storegade 15","zip_city":" 6430 Nordborg","phone":"74451213","email":null,"lng_lat":"55.05773199999999,9.7431093","body":null,"created_at":"2014-11-14T11:54:45.000Z","updated_at":"2014-11-14T12:11:33.000Z"},{"id":2494,"name":"Gregersen","street":"v/Jørgen Mortensen Adelgade 81","zip_city":" 8660 Skanderborg","phone":"86520149","email":null,"lng_lat":"56.03448,9.931429999999999","body":null,"created_at":"2014-11-14T11:54:45.000Z","updated_at":"2014-11-14T12:11:38.000Z"},{"id":2495,"name":"Grossisten","street":"v/Knud Bach Bredgade 24","zip_city":" 6830 Nørre Nebel","phone":"97338999","email":null,"lng_lat":"55.779377,8.288226","body":null,"created_at":"2014-11-14T11:54:45.000Z","updated_at":"2014-11-14T12:11:44.000Z"},{"id":2496,"name":"Grønnegade","street":"v/Erika Rohde Nr. Bredgade 1","zip_city":" 6933 Kibæk","phone":"97192497","email":null,"lng_lat":"56.03248199999999,8.8541203","body":null,"created_at":"2014-11-14T11:54:45.000Z","updated_at":"2014-11-14T12:11:49.000Z"},{"id":2497,"name":"Hans Ruby","street":"Nygade 14","zip_city":" 6950 Ringkøbing","phone":"97320142","email":null,"lng_lat":"56.090932,8.2455812","body":null,"created_at":"2014-11-14T11:54:45.000Z","updated_at":"2014-11-14T12:11:54.000Z"},{"id":2498,"name":"Hansen \u0026 Nissen","street":"v/Hr. Carl Erik le Fevre Søndergade 1","zip_city":" 8700 Horsens","phone":"75623844","email":null,"lng_lat":"55.862139,9.845672","body":null,"created_at":"2014-11-14T11:54:45.000Z","updated_at":"2014-11-14T12:11:59.000Z"},{"id":2499,"name":"Happy Kids ApS","street":"Storegade 27","zip_city":" 6740 Bramming","phone":"75170909","email":null,"lng_lat":"55.4650365,8.6997728","body":null,"created_at":"2014-11-14T11:54:45.000Z","updated_at":"2014-11-14T12:12:05.000Z"},{"id":2500,"name":"Helles \u0026 Marks","street":"v/Helle Rossen Butikstorvet 1","zip_city":" 7190 Billund","phone":"75353100","email":null,"lng_lat":"55.73061629999999,9.1169008","body":null,"created_at":"2014-11-14T11:54:45.000Z","updated_at":"2014-11-14T12:12:10.000Z"},{"id":2501,"name":"Hilde B","street":"Stavensbølgade 1","zip_city":" 6440 Augustenborg","phone":"74471940","email":null,"lng_lat":"54.9462468,9.872941599999999","body":null,"created_at":"2014-11-14T11:54:45.000Z","updated_at":"2014-11-14T12:12:15.000Z"},{"id":2502,"name":"Humlebien","street":"v/Agnethe Wojcik Kuldbjergvej 28","zip_city":" 7321 Gadbjerg","phone":"75876296","email":null,"lng_lat":"55.778705,9.358217999999999","body":null,"created_at":"2014-11-14T11:54:45.000Z","updated_at":"2014-11-14T12:12:20.000Z"},{"id":2503,"name":"Hærvejens Købmand","street":"Gejlå","zip_city":" 6330 Padborg","phone":"74687679","email":null,"lng_lat":"54.894195,9.364201","body":null,"created_at":"2014-11-14T11:54:45.000Z","updated_at":"2014-11-14T12:12:25.000Z"},{"id":2504,"name":"Høyrup","street":"v/Karsten Dahl Høyrup Industrivej 6","zip_city":" 9750 Øster Vrå","phone":"98951005","email":null,"lng_lat":"57.3406116,10.2379672","body":null,"created_at":"2014-11-14T11:54:45.000Z","updated_at":"2014-11-14T12:12:30.000Z"},{"id":2505,"name":"IFRS ApS","street":"Holstebrovej 1­3","zip_city":" 7490 Aulum","phone":"22113212","email":null,"lng_lat":null,"body":null,"created_at":"2014-11-14T11:54:45.000Z","updated_at":"2014-11-14T11:54:45.000Z"},{"id":2506,"name":"Italy 4 Tweenz","street":"Tarup Center Rugvang 36","zip_city":" 5210 Odense NV DK","phone":"66165557","email":null,"lng_lat":"55.4097915,10.3389452","body":null,"created_at":"2014-11-14T11:54:45.000Z","updated_at":"2014-11-14T12:12:41.000Z"},{"id":2507,"name":"Jackson","street":"v/Jørgen Mortensen Adelgade 90","zip_city":" 8660 Skanderborg","phone":"86520844","email":null,"lng_lat":"56.034901,9.931664999999999","body":null,"created_at":"2014-11-14T11:54:45.000Z","updated_at":"2014-11-14T12:12:46.000Z"},{"id":2508,"name":"Jail","street":"Torvegade 38","zip_city":" 6700 Esbjer","phone":"75115045","email":null,"lng_lat":"55.468778,8.452612","body":null,"created_at":"2014-11-14T11:54:45.000Z","updated_at":"2014-11-14T12:12:51.000Z"},{"id":2509,"name":"Jette Poulsen, Na­Ni","street":"Nørregade 5","zip_city":"8660 Skanderborg","phone":"86521081","email":null,"lng_lat":"56.039626,9.929483","body":null,"created_at":"2014-11-14T11:54:45.000Z","updated_at":"2014-11-14T12:12:56.000Z"},{"id":2510,"name":"Jysk Erhvervsbeklædning ApS","street":"Centervej 2","zip_city":" 6000 Kolding","phone":"75820855","email":null,"lng_lat":"55.521134,9.477483999999999","body":null,"created_at":"2014-11-14T11:54:45.000Z","updated_at":"2014-11-14T12:13:01.000Z"},{"id":2511,"name":"Jørgen Jørgensen","street":"(Tweenty Five ApS) Rønnebærvej 22","zip_city":" 7500 Holstebro","phone":"97404707","email":null,"lng_lat":"56.34759949999999,8.6533076","body":null,"created_at":"2014-11-14T11:54:45.000Z","updated_at":"2014-11-14T12:13:07.000Z"},{"id":2512,"name":"Jørgen Pedersen/SØBY","street":"Lene Pedersen Søndergade 11","zip_city":" 8370 Hadsten","phone":"28448542","email":null,"lng_lat":"56.3272278,10.0449264","body":null,"created_at":"2014-11-14T11:54:45.000Z","updated_at":"2014-11-14T12:13:12.000Z"},{"id":2513,"name":"Kanna Seeds lukket","street":"v/AMK ApS Vestergade 10","zip_city":" 7200 Grindsted","phone":"75322538","email":null,"lng_lat":"55.7576282,8.9263362","body":null,"created_at":"2014-11-14T11:54:45.000Z","updated_at":"2014-11-14T12:13:17.000Z"},{"id":2514,"name":"Kent Børnetøj I/S","street":"Gl. Torv 2","zip_city":" 5800 Nyborg","phone":"65312240","email":null,"lng_lat":"55.3116593,10.7923184","body":null,"created_at":"2014-11-14T11:54:45.000Z","updated_at":"2014-11-14T12:13:22.000Z"},{"id":2515,"name":"Kid ́s","street":"V/Lissy H. Christensen Vestergade 7","zip_city":" 7323 Give","phone":null,"email":null,"lng_lat":"55.84470959999999,9.236218800000001","body":null,"created_at":"2014-11-14T11:54:45.000Z","updated_at":"2014-11-14T12:13:28.000Z"},{"id":2516,"name":"Kids House Fakt. m/post","street":"V/Henriette Opstrup Metheasvej 6","zip_city":" 6960 Hvide Sande","phone":"97312049","email":null,"lng_lat":"55.99951,8.126296","body":null,"created_at":"2014-11-14T11:54:45.000Z","updated_at":"2014-11-14T12:13:33.000Z"},{"id":2517,"name":"Kids og Queens","street":"v/Mona Sønnichsen Nørregade 26 A","zip_city":" 6330 Padborg","phone":"74672255","email":null,"lng_lat":"54.82377839999999,9.3623003","body":null,"created_at":"2014-11-14T11:54:45.000Z","updated_at":"2014-11-14T12:13:38.000Z"},{"id":2518,"name":"Kids Shop","street":"Bredgade 2","zip_city":" 6630 Rødding","phone":null,"email":null,"lng_lat":"55.3682867,9.0565603","body":null,"created_at":"2014-11-14T11:54:45.000Z","updated_at":"2014-11-14T12:13:44.000Z"},{"id":2519,"name":"Kidz \u0026 Teenz","street":"v/Dorte Petersen Søborghovedgade 119","zip_city":" 2860 Søborg","phone":"39699811","email":null,"lng_lat":"55.735202,12.514807","body":null,"created_at":"2014-11-14T11:54:45.000Z","updated_at":"2014-11-14T12:13:49.000Z"},{"id":2520,"name":"Kidz Corner","street":"v/Anita R. Svenningsen Storegade 27","zip_city":" 6870 Ølgod","phone":"75243003","email":null,"lng_lat":"55.807927,8.621278","body":null,"created_at":"2014-11-14T11:54:45.000Z","updated_at":"2014-11-14T12:13:54.000Z"},{"id":2521,"name":"Kings \u0026 Queens deluxe","street":"v/Udlejningsvirksomhed Krøjgårdsvej 19","zip_city":" 7400 Herning","phone":"97209653","email":null,"lng_lat":"56.138557,8.967322","body":null,"created_at":"2014-11-14T11:54:45.000Z","updated_at":"2014-11-14T12:13:59.000Z"},{"id":2522,"name":"Kære Børn","street":"V/Winnie Larsen Torvet 3","zip_city":" 8600 Silkeborg DK","phone":"86826030","email":null,"lng_lat":"56.169527,9.5489029","body":null,"created_at":"2014-11-14T11:54:45.000Z","updated_at":"2014-11-14T12:14:04.000Z"},{"id":2523,"name":"Lasse \u0026 Mathilde","street":"V/Bettina Lønborg Søndergade 29","zip_city":" 6000 Kolding","phone":"75540355","email":null,"lng_lat":"55.4867315,9.4726799","body":null,"created_at":"2014-11-14T11:54:45.000Z","updated_at":"2014-11-14T12:14:10.000Z"},{"id":2524,"name":"Lasse \u0026 Mathilde v/Malene Chri","street":"Vestergade 56","zip_city":" 6270 Tønde","phone":"74725088","email":null,"lng_lat":"54.9348538,8.864557699999999","body":null,"created_at":"2014-11-14T11:54:45.000Z","updated_at":"2014-11-14T12:14:15.000Z"},{"id":2525,"name":"Lilly Brudekjoler","street":"v/Lilly Modeller AmbA Bugattivej 2","zip_city":" 7100 Vejle","phone":"75859955","email":null,"lng_lat":"55.67488700000001,9.583458","body":null,"created_at":"2014-11-14T11:54:45.000Z","updated_at":"2014-11-14T12:14:20.000Z"},{"id":2526,"name":"Loppen \u0026 Professoren","street":"v/Jan Riis Nielsen Skovvangen 42","zip_city":" 6000 Kolding","phone":"75517533","email":null,"lng_lat":"55.5139736,9.4625033","body":null,"created_at":"2014-11-14T11:54:45.000Z","updated_at":"2014-11-14T12:14:25.000Z"},{"id":2527,"name":"Lurifax","street":"Blangstedgårdsvej 27","zip_city":" 5220 Odense SØ","phone":null,"email":null,"lng_lat":"55.385555,10.440229","body":null,"created_at":"2014-11-14T11:54:45.000Z","updated_at":"2014-11-14T12:14:30.000Z"},{"id":2528,"name":"Lurifax afd. 222","street":"Rosengaardcentret 22 Ørbækvej 75","zip_city":" 5220 Odense SØ","phone":"65932040","email":null,"lng_lat":"55.3843606,10.4269575","body":null,"created_at":"2014-11-14T11:54:45.000Z","updated_at":"2014-11-14T12:14:35.000Z"},{"id":2529,"name":"Lurifax afd. 237","street":"Rosengaardcentret 237 Ørbækvej 75","zip_city":" 5220 Odense SØ","phone":"65935200","email":null,"lng_lat":"55.3843606,10.4269575","body":null,"created_at":"2014-11-14T11:54:45.000Z","updated_at":"2014-11-14T12:14:41.000Z"},{"id":2530,"name":"Lurifax afd. 239","street":"v/Lurifax Blangstedgårdsvej 27","zip_city":" 5220 Odense SØ","phone":"65930300","email":null,"lng_lat":"55.385555,10.440229","body":null,"created_at":"2014-11-14T11:54:45.000Z","updated_at":"2014-11-14T12:14:46.000Z"},{"id":2531,"name":"Lurifax afd. D","street":"Dalumcentret Dalumvej 42­44","zip_city":" 5250 Odense SV","phone":"66121731","email":null,"lng_lat":null,"body":null,"created_at":"2014-11-14T11:54:45.000Z","updated_at":"2014-11-14T11:54:45.000Z"},{"id":2532,"name":"Lurifax afd. Es","street":"Esbjerg Storcenter Gl. Vardevej 230","zip_city":" 6715 Esbjerg N","phone":"75450900","email":null,"lng_lat":"55.53981719999999,8.5174649","body":null,"created_at":"2014-11-14T11:54:45.000Z","updated_at":"2014-11-14T12:14:56.000Z"},{"id":2533,"name":"Lurifax afd. He","street":"Herning Centret Merkurvej 97","zip_city":" 7400 Herning","phone":"97168100","email":null,"lng_lat":"56.1351015,8.9993249","body":null,"created_at":"2014-11-14T11:54:45.000Z","updated_at":"2014-11-14T12:15:02.000Z"},{"id":2534,"name":"Lurifax afd. Ho","street":"Bytorv Horsens Søndergade 14","zip_city":" 8700 Horsens","phone":"75631600","email":null,"lng_lat":"55.86175009999999,9.8468691","body":null,"created_at":"2014-11-14T11:54:45.000Z","updated_at":"2014-11-14T12:15:07.000Z"},{"id":2535,"name":"Lurifax afd. Ko","street":"Kolding Storcenter 2114 Skovvangen 42","zip_city":" 6000 Kolding DK","phone":"75506369","email":null,"lng_lat":"55.5139736,9.4625033","body":null,"created_at":"2014-11-14T11:54:45.000Z","updated_at":"2014-11-14T12:15:12.000Z"},{"id":2536,"name":"Lurifax, Roskilde","street":"Ro's Torv Københavnsvej 29","zip_city":" 4000 Roskilde DK","phone":"46384900","email":null,"lng_lat":"55.6411185,12.0986261","body":null,"created_at":"2014-11-14T11:54:45.000Z","updated_at":"2014-11-14T12:15:17.000Z"},{"id":2537,"name":"Løbner Tøj","street":"Lindegade 39","zip_city":" 6070 Christiansfeld","phone":"74561244","email":null,"lng_lat":"55.355749,9.4867069","body":null,"created_at":"2014-11-14T11:54:45.000Z","updated_at":"2014-11-14T12:15:22.000Z"},{"id":2538,"name":"Madam Hestbech","street":"v/Elisabeth Hestbech Uldal Perlegade 71","zip_city":" 6400 Sønderborg","phone":"74422558","email":null,"lng_lat":"54.913087,9.793367","body":null,"created_at":"2014-11-14T11:54:45.000Z","updated_at":"2014-11-14T12:15:28.000Z"},{"id":2539,"name":"Madame Tuc","street":"v/Gitte Østergaard Ved Milepælen 3","zip_city":" 8361 Hasselager","phone":"86394063","email":null,"lng_lat":"56.102809,10.088002","body":null,"created_at":"2014-11-14T11:54:45.000Z","updated_at":"2014-11-14T12:15:33.000Z"},{"id":2540,"name":"MC Textil lukket","street":"Bredgade 38","zip_city":" 6830 Nørre Nebe","phone":"75288044","email":null,"lng_lat":"55.7792082,8.289893","body":null,"created_at":"2014-11-14T11:54:45.000Z","updated_at":"2014-11-14T12:15:38.000Z"},{"id":2541,"name":"Men Kolding","street":"Stamholmen 147","zip_city":" 2650 Hvidovre","phone":"75501550","email":null,"lng_lat":"55.614893,12.473062","body":null,"created_at":"2014-11-14T11:54:45.000Z","updated_at":"2014-11-14T12:15:43.000Z"},{"id":2542,"name":"Mille Mi","street":"v/Charlotte Pedersen Bystedparken 44","zip_city":" 7080 Børkop DK","phone":"64400073","email":null,"lng_lat":"55.63379699999999,9.7037275","body":null,"created_at":"2014-11-14T11:54:45.000Z","updated_at":"2014-11-14T12:15:48.000Z"},{"id":2543,"name":"Min Øjesten ApS","street":"v/Irena Nielsen Søndergade 19","zip_city":" 8464 Galten","phone":"86945900","email":null,"lng_lat":"56.1526961,9.903240199999999","body":null,"created_at":"2014-11-14T11:54:45.000Z","updated_at":"2014-11-14T12:15:54.000Z"},{"id":2544,"name":"Mix","street":"V/Lotte Mark Rådhuscentret 49","zip_city":" 6500 Vojens","phone":"22182498","email":null,"lng_lat":"55.2460356,9.2924136","body":null,"created_at":"2014-11-14T11:54:45.000Z","updated_at":"2014-11-14T12:15:59.000Z"},{"id":2545,"name":"ML.dk A/S","street":"Kjærgaardsvej 47","zip_city":" 7451 Sunds","phone":"97142564","email":null,"lng_lat":"56.19948729999999,9.0129681","body":null,"created_at":"2014-11-14T11:54:45.000Z","updated_at":"2014-11-14T12:16:04.000Z"},{"id":2546,"name":"Mr.","street":"v/Keld Vestergaard Saltgade 3","zip_city":" 6760 Ribe","phone":"75420291","email":null,"lng_lat":"55.3302776,8.7663318","body":null,"created_at":"2014-11-14T11:54:45.000Z","updated_at":"2014-11-14T12:16:09.000Z"},{"id":2547,"name":"Mr. Carsten","street":"Bytorvet 7","zip_city":" 8722 Hedensted","phone":"75891085","email":null,"lng_lat":"55.7694663,9.7009916","body":null,"created_at":"2014-11-14T11:54:45.000Z","updated_at":"2014-11-14T12:16:15.000Z"},{"id":2548,"name":"Mr. Arthur","street":"v/Heino Jensen \u0026 Per Hansen Østergade 23","zip_city":" 7600 Struer DK","phone":"97850025","email":null,"lng_lat":"56.491898,8.5948879","body":null,"created_at":"2014-11-14T11:54:45.000Z","updated_at":"2014-11-14T12:16:20.000Z"},{"id":2549,"name":"Mr. Ebbe","street":"Rådhuspladsen 1­5","zip_city":" 7190 Billund","phone":"75331828","email":null,"lng_lat":null,"body":null,"created_at":"2014-11-14T11:54:45.000Z","updated_at":"2014-11-14T11:54:45.000Z"},{"id":2550,"name":"Mr. Herrehus","street":"Nørretorv 2­4","zip_city":" 6200 Aabenra","phone":"74622176","email":null,"lng_lat":null,"body":null,"created_at":"2014-11-14T11:54:45.000Z","updated_at":"2014-11-14T11:54:45.000Z"},{"id":2551,"name":"Mr. Herrehus","street":"Østergade 4","zip_city":" 6230 Rødekro","phone":"74661090","email":null,"lng_lat":"55.069986,9.335746","body":null,"created_at":"2014-11-14T11:54:45.000Z","updated_at":"2014-11-14T12:16:35.000Z"},{"id":2552,"name":"Mr. L.P.","street":"v/Karina B. Rytter \u0026 Casper Pedersen Bredgade 8","zip_city":" 7680 Thyborøn","phone":"97831515","email":null,"lng_lat":"56.70485439999999,8.219757000000001","body":null,"created_at":"2014-11-14T11:54:45.000Z","updated_at":"2014-11-14T12:16:41.000Z"},{"id":2553,"name":"Mr. Poul Svanholm","street":"Torvegade 42","zip_city":" 6700 Esbjerg","phone":"75450266","email":null,"lng_lat":"55.469084,8.452719","body":null,"created_at":"2014-11-14T11:54:45.000Z","updated_at":"2014-11-14T12:16:46.000Z"},{"id":2554,"name":"Mr. Randers Storcenter","street":"Middelgade 5­7","zip_city":" 8900 Rander","phone":"46906070","email":null,"lng_lat":null,"body":null,"created_at":"2014-11-14T11:54:45.000Z","updated_at":"2014-11-14T11:54:45.000Z"},{"id":2555,"name":"Mr. Thomsen","street":"v/Poul Thomsen Bredgade 54","zip_city":" 6900 Skjern","phone":"97374697","email":null,"lng_lat":"55.9475875,8.4931699","body":null,"created_at":"2014-11-14T11:54:45.000Z","updated_at":"2014-11-14T12:16:56.000Z"},{"id":2556,"name":"Musen \u0026 Elefanten I/S","street":"Bystævnet 1","zip_city":" 8520 Lystru","phone":"86743300","email":null,"lng_lat":"56.233892,10.2293749","body":null,"created_at":"2014-11-14T11:54:45.000Z","updated_at":"2014-11-14T12:17:01.000Z"},{"id":2557,"name":"Next Generation","street":"v/Else Pallesen Jernbanegade 12","zip_city":" 6900 Skjern","phone":"96801044","email":null,"lng_lat":"55.947622,8.494475","body":null,"created_at":"2014-11-14T11:54:45.000Z","updated_at":"2014-11-14T12:17:07.000Z"},{"id":2559,"name":"Nikolai \u0026 Nikoline","street":"v/Anette Tanderup Søndergade 13","zip_city":" 7830 Vinderup","phone":"97443200","email":null,"lng_lat":"56.4806039,8.7787505","body":null,"created_at":"2014-11-14T11:54:45.000Z","updated_at":"2014-11-14T12:17:17.000Z"},{"id":2560,"name":"No 1 Teenz.dk","street":"Ishøj Vestergade 9","zip_city":" 2635 Ishøj","phone":"78283861","email":null,"lng_lat":"55.61407699999999,12.3552082","body":null,"created_at":"2014-11-14T11:54:45.000Z","updated_at":"2014-11-14T12:17:22.000Z"},{"id":2561,"name":"NUBA Børnetøj","street":"v/Tommy Riboe Valbylanggade 49","zip_city":" 2500 Valby DK","phone":"22798216","email":null,"lng_lat":"55.66165849999999,12.5167753","body":null,"created_at":"2014-11-14T11:54:45.000Z","updated_at":"2014-11-14T12:17:27.000Z"},{"id":2562,"name":"Nugga ­ LUKKET","street":"v/Anette Sillesen Tordenskjoldsgade 81","zip_city":" 8200 Aarhus N","phone":"86100885","email":null,"lng_lat":"56.173913,10.21681","body":null,"created_at":"2014-11-14T11:54:45.000Z","updated_at":"2014-11-14T12:17:32.000Z"},{"id":2563,"name":"Ofelia/Trolden ApS","street":"Centervej 17","zip_city":" 8963 Auning","phone":"86484319","email":null,"lng_lat":"56.4315805,10.3733382","body":null,"created_at":"2014-11-14T11:54:45.000Z","updated_at":"2014-11-14T12:17:37.000Z"},{"id":2564,"name":"Okay","street":"Rørvigvej 124","zip_city":" 4500 Nykøbing S","phone":null,"email":null,"lng_lat":"55.9370767,11.6828158","body":null,"created_at":"2014-11-14T11:54:45.000Z","updated_at":"2014-11-14T12:17:43.000Z"},{"id":2565,"name":"Olfert Børnetøj ApS","street":"Nørreport 7","zip_city":" 6200 Aabenraa","phone":null,"email":null,"lng_lat":"55.04810699999999,9.419032","body":null,"created_at":"2014-11-14T11:54:45.000Z","updated_at":"2014-11-14T12:17:48.000Z"},{"id":2566,"name":"Own It","street":"Daniella Nare Sahakian Jernhytvej 24","zip_city":" 6500 Vojens","phone":"20657053","email":null,"lng_lat":"55.24630699999999,9.314485999999999","body":null,"created_at":"2014-11-14T11:54:45.000Z","updated_at":"2014-11-14T12:17:53.000Z"},{"id":2567,"name":"Pigerne","street":"Storegade 21","zip_city":"6753 Agerbæk","phone":"75196160","email":null,"lng_lat":"55.601401,8.802833999999999","body":null,"created_at":"2014-11-14T11:54:45.000Z","updated_at":"2014-11-14T12:17:58.000Z"},{"id":2568,"name":"Polo Club","street":"v/HH Andersen Børnetøj ApS Mikkelborg Allé 36","zip_city":" 2970 Hørsholm DK","phone":"45881951","email":null,"lng_lat":"55.910833,12.516739","body":null,"created_at":"2014-11-14T11:54:45.000Z","updated_at":"2014-11-14T12:18:04.000Z"},{"id":2569,"name":"Prikken","street":"v/Jenny Larsen Nørregade 1","zip_city":" 6623 Vorbasse","phone":null,"email":null,"lng_lat":"55.6303335,9.0801642","body":null,"created_at":"2014-11-14T11:54:45.000Z","updated_at":"2014-11-14T12:18:09.000Z"},{"id":2570,"name":"Prikken","street":"v/Jette \u0026 Bjarne Kring Nørregade 1","zip_city":" 6623 Vorbasse","phone":"75333177","email":null,"lng_lat":"55.6303335,9.0801642","body":null,"created_at":"2014-11-14T11:54:45.000Z","updated_at":"2014-11-14T12:18:14.000Z"},{"id":2571,"name":"Rehhoff Tweens","street":"Strandvej 3, Rønshoved","zip_city":"6340 Kruså","phone":"22663838","email":null,"lng_lat":"54.871492,9.514812","body":null,"created_at":"2014-11-14T11:54:45.000Z","updated_at":"2014-11-14T12:18:19.000Z"},{"id":2572,"name":"Rosa og Ridderen","street":"Rygeshop dk ApS Moeskjærvej 2","zip_city":" 7620 Lemvig DK","phone":"28565815","email":null,"lng_lat":"56.561621,8.341896","body":null,"created_at":"2014-11-14T11:54:45.000Z","updated_at":"2014-11-14T12:18:24.000Z"},{"id":2573,"name":"Salling A/S, afd. 101­480","street":"Lev. nr. 6252702 Søndergade 27","zip_city":" 8100 Aarhus C","phone":null,"email":null,"lng_lat":null,"body":null,"created_at":"2014-11-14T11:54:45.000Z","updated_at":"2014-11-14T11:54:45.000Z"},{"id":2574,"name":"Seeds","street":"v/Svend Erik Nielsen Østergade 9","zip_city":" 8600 Silkeborg","phone":"86212022","email":null,"lng_lat":"56.1705025,9.5512494","body":null,"created_at":"2014-11-14T11:54:45.000Z","updated_at":"2014-11-14T12:18:35.000Z"},{"id":2575,"name":"Seeds","street":"v/Simon Andersen Nørregade 2","zip_city":" 8500 Grenaa DK","phone":"86327744","email":null,"lng_lat":"56.413962,10.876875","body":null,"created_at":"2014-11-14T11:54:45.000Z","updated_at":"2014-11-14T12:18:40.000Z"},{"id":2576,"name":"Seeds","street":"V/Jette Frøhling Rådhusstræde 4­6","zip_city":" 4800 Nykøbing F","phone":"54822300","email":null,"lng_lat":"54.76542200000001,11.875492","body":null,"created_at":"2014-11-14T11:54:45.000Z","updated_at":"2014-11-14T12:18:45.000Z"},{"id":2577,"name":"Seeds","street":"v/Per Bak Rimmensgade 5b","zip_city":" 9900 Frederikshavn DK","phone":"98421171","email":null,"lng_lat":"57.4381649,10.5336465","body":null,"created_at":"2014-11-14T11:54:45.000Z","updated_at":"2014-11-14T12:18:51.000Z"},{"id":2578,"name":"Seeds","street":"v/Charlotte Tindbæk Søndergade 32","zip_city":" 8700 Horsens DK","phone":"75621678","email":null,"lng_lat":"55.861718,9.849385999999999","body":null,"created_at":"2014-11-14T11:54:45.000Z","updated_at":"2014-11-14T12:18:56.000Z"},{"id":2579,"name":"Seeds / Mini Max","street":"Brinck Seidelinsgade 5","zip_city":"9800 Hjørring","phone":"98902310","email":null,"lng_lat":"57.45876939999999,9.9890173","body":null,"created_at":"2014-11-14T11:54:45.000Z","updated_at":"2014-11-14T12:19:01.000Z"},{"id":2580,"name":"Seeds Brønderslev","street":"P. Møllers Plads 12­14","zip_city":"9700 Brønderslev","phone":"98822030","email":null,"lng_lat":"57.27090399999999,9.945167999999999","body":null,"created_at":"2014-11-14T11:54:45.000Z","updated_at":"2014-11-14T12:19:06.000Z"},{"id":2581,"name":"Seeds Kanna, lukket","street":"v/Kanna Sørensen Vestergade 10","zip_city":" 7200 Grindsted","phone":null,"email":null,"lng_lat":"55.7576282,8.9263362","body":null,"created_at":"2014-11-14T11:54:45.000Z","updated_at":"2014-11-14T12:19:11.000Z"},{"id":2582,"name":"Seeds Maskot \u0026 Morris","street":"v/Lars \u0026 Anette Andersen Vesterbrogade 15","zip_city":" 3250 Gilleleje","phone":"48355887","email":null,"lng_lat":"56.1258043,12.3035526","body":null,"created_at":"2014-11-14T11:54:45.000Z","updated_at":"2014-11-14T12:19:17.000Z"},{"id":2583,"name":"Seeds Teenz","street":"v/Anette Andersen Stjernegade 20","zip_city":" 3000 Helsingør","phone":"49766104","email":null,"lng_lat":"56.0354681,12.6100927","body":null,"created_at":"2014-11-14T11:54:45.000Z","updated_at":"2014-11-14T12:19:22.000Z"},{"id":2584,"name":"Seeds Webshop","street":"Uraniavej 15","zip_city":" 8700 Horsens","phone":"75620744","email":null,"lng_lat":"55.83248099999999,9.794065999999999","body":null,"created_at":"2014-11-14T11:54:45.000Z","updated_at":"2014-11-14T12:19:27.000Z"},{"id":2585,"name":"Seeds, Butik Pia","street":"v/Lene Jørgensen Nørregade 18","zip_city":" 7500 Holstebro","phone":"97414066","email":null,"lng_lat":"56.3594367,8.6172728","body":null,"created_at":"2014-11-14T11:54:45.000Z","updated_at":"2014-11-14T12:19:32.000Z"},{"id":2586,"name":"Seeds, Hanzine","street":"v/Lise Børsting Algade 74","zip_city":" 4760 Vordingborg","phone":"55372316","email":null,"lng_lat":"55.00890039999999,11.90816","body":null,"created_at":"2014-11-14T11:54:45.000Z","updated_at":"2014-11-14T12:19:37.000Z"},{"id":2587,"name":"Seeds, Hærvig","street":"v/Jonna Jensen Jernbanegade 13","zip_city":" 6400 Sønderborg","phone":"74425633","email":null,"lng_lat":"54.9100988,9.7925077","body":null,"created_at":"2014-11-14T11:54:45.000Z","updated_at":"2014-11-14T12:19:43.000Z"},{"id":2588,"name":"Shorty","street":"City Vest","zip_city":" 8220 Brabrand","phone":null,"email":null,"lng_lat":"56.15305499999999,10.136486","body":null,"created_at":"2014-11-14T11:54:45.000Z","updated_at":"2014-11-14T12:19:48.000Z"},{"id":2589,"name":"Sigurd \u0026 Sille Herning ApS","street":"Søndergade 10","zip_city":" 7400 Herning","phone":"97214911","email":null,"lng_lat":"56.1354598,8.9757812","body":null,"created_at":"2014-11-14T11:54:45.000Z","updated_at":"2014-11-14T12:19:53.000Z"},{"id":2590,"name":"Silje Badilje ApS","street":"v/Trine Nielsen Østergade 26","zip_city":" 8450 Hammel","phone":"86969900","email":null,"lng_lat":"56.2567578,9.866996","body":null,"created_at":"2014-11-14T11:54:45.000Z","updated_at":"2014-11-14T12:19:58.000Z"},{"id":2591,"name":"Sinkadusen","street":"v/Pia Bæk Hansen Gorms Torv 9","zip_city":" 7300 Jelling","phone":"75873195","email":null,"lng_lat":"55.75577080000001,9.4180419","body":null,"created_at":"2014-11-14T11:54:45.000Z","updated_at":"2014-11-14T12:20:04.000Z"},{"id":2592,"name":"Smarte Krudtugler","street":"v/LVC Udlejning ApS Cannerslundvej 54","zip_city":" 9490 Pandrup DK","phone":"28299072","email":null,"lng_lat":"57.218362,9.66251","body":null,"created_at":"2014-11-14T11:54:45.000Z","updated_at":"2014-11-14T12:20:09.000Z"},{"id":2593,"name":"Spiloppen","street":"Marianne Stræde Torvet 14","zip_city":" 6950 Ringkøbing","phone":"97326122","email":null,"lng_lat":"56.1201303,8.1816722","body":null,"created_at":"2014-11-14T11:54:45.000Z","updated_at":"2014-11-14T12:20:14.000Z"},{"id":2594,"name":"Sportlagersalg Grindsted","street":"J \u0026 T Holding Grindsted A/S Borgergade 14","zip_city":" 7200 Grindsted","phone":"75325859","email":null,"lng_lat":"55.7569009,8.9291462","body":null,"created_at":"2014-11-14T11:54:45.000Z","updated_at":"2014-11-14T12:20:19.000Z"},{"id":2595,"name":"Stockexchange ApS","street":"Jernbanegade 22","zip_city":" 6900 Skjern","phone":"22733030","email":null,"lng_lat":"55.94777879999999,8.49506","body":null,"created_at":"2014-11-14T11:54:45.000Z","updated_at":"2014-11-14T12:20:24.000Z"},{"id":2596,"name":"Storm","street":"v/Karna Hildegaard Bech Torvet 3","zip_city":" 7620 Lemvig","phone":"97820190","email":null,"lng_lat":"56.55025999999999,8.309603899999999","body":null,"created_at":"2014-11-14T11:54:45.000Z","updated_at":"2014-11-14T12:20:30.000Z"},{"id":2597,"name":"Strunk","street":"v/Borch \u0026 Jelstrup ApS Asylgade 16","zip_city":" 5000 Odense C","phone":"66127012","email":null,"lng_lat":"55.39803879999999,10.3874742","body":null,"created_at":"2014-11-14T11:54:45.000Z","updated_at":"2014-11-14T12:20:35.000Z"},{"id":2598,"name":"Stylepit A/S, afd. Kids","street":"FREE OF VAT Laplandsgade 4a","zip_city":" 2300 København S DK","phone":"92070751","email":null,"lng_lat":"55.668998,12.61051","body":null,"created_at":"2014-11-14T11:54:45.000Z","updated_at":"2014-11-14T12:20:40.000Z"},{"id":2599,"name":"Sus And Kids","street":"v/Susan K.S.Monefeldt Waves Overbølgen 12 E","zip_city":" 2670 Greve","phone":"43441222","email":null,"lng_lat":"55.5985117,12.241408","body":null,"created_at":"2014-11-14T11:54:45.000Z","updated_at":"2014-11-14T12:20:45.000Z"},{"id":2600,"name":"Søby Outlet","street":"v/Lene Søby Pedersen Torvet 3","zip_city":" 7620 Lemvig DK","phone":"28448542","email":null,"lng_lat":"56.55025999999999,8.309603899999999","body":null,"created_at":"2014-11-14T11:54:45.000Z","updated_at":"2014-11-14T12:20:50.000Z"},{"id":2601,"name":"Søgård","street":"v/Dorthe Dyhr Jensen Vestergade 8","zip_city":" 8620 Kjellerup","phone":"86883619","email":null,"lng_lat":"56.2893421,9.4294786","body":null,"created_at":"2014-11-14T11:54:45.000Z","updated_at":"2014-11-14T12:20:56.000Z"},{"id":2602,"name":"Terminal C","street":"v/NN 11 ApS Torvegade 15","zip_city":" 7100 Vejle","phone":"75826100","email":null,"lng_lat":"55.7094283,9.5331269","body":null,"created_at":"2014-11-14T11:54:45.000Z","updated_at":"2014-11-14T12:21:01.000Z"},{"id":2603,"name":"Tip­Top ́s Eftf.","street":"Neder Dammen 29","zip_city":" 6760 Ribe","phone":"75411241","email":null,"lng_lat":"55.326936,8.774665","body":null,"created_at":"2014-11-14T11:54:45.000Z","updated_at":"2014-11-14T12:21:06.000Z"},{"id":2604,"name":"Toftegaard Textil A/S","street":"Trehøjevej 30","zip_city":" 8882 Fårvang","phone":"86871828","email":null,"lng_lat":"56.252646,9.7110369","body":null,"created_at":"2014-11-14T11:54:45.000Z","updated_at":"2014-11-14T12:21:11.000Z"},{"id":2605,"name":"Tom Staal Dinesen","street":"(Mille Mi) Duevænget 22","zip_city":" 6710 Esbjerg V","phone":"22411468","email":null,"lng_lat":"55.532858,8.3500859","body":null,"created_at":"2014-11-14T11:54:45.000Z","updated_at":"2014-11-14T12:21:16.000Z"},{"id":2606,"name":"Troldeæsken ApS","street":"v/Conny Nielsen Østergade 29","zip_city":" 3200 Helsinge DK","phone":"48390990","email":null,"lng_lat":"56.02307159999999,12.202076","body":null,"created_at":"2014-11-14T11:54:45.000Z","updated_at":"2014-11-14T12:21:21.000Z"},{"id":2607,"name":"Tøj og Sport","street":"Hovedgaden 4","zip_city":" 7260 Sønder Omme","phone":"75341999","email":null,"lng_lat":"55.8384777,8.895012099999999","body":null,"created_at":"2014-11-14T11:54:45.000Z","updated_at":"2014-11-14T12:21:27.000Z"},{"id":2608,"name":"Tøj4Os 2012 ApS","street":"Industrivej 78","zip_city":" 7080 Børko","phone":"75868051","email":null,"lng_lat":"55.6380907,9.6717406","body":null,"created_at":"2014-11-14T11:54:45.000Z","updated_at":"2014-11-14T12:21:32.000Z"},{"id":2609,"name":"Tøj4Os ApS","street":"Industrivej 78","zip_city":" 7080 Børkop","phone":null,"email":null,"lng_lat":"55.6380907,9.6717406","body":null,"created_at":"2014-11-14T11:54:45.000Z","updated_at":"2014-11-14T12:21:37.000Z"},{"id":2610,"name":"Tøjbutikken","street":"v/Ribe Lavpris ApS Saltgade 4","zip_city":" 6760 Ribe","phone":"75423434","email":null,"lng_lat":"55.33030979999999,8.7665536","body":null,"created_at":"2014-11-14T11:54:45.000Z","updated_at":"2014-11-14T12:21:42.000Z"},{"id":2611,"name":"Tøjeksperten","street":"Kolding Storcenter Skovvangen 42","zip_city":" 6000 Kolding","phone":"76310363","email":null,"lng_lat":"55.5139736,9.4625033","body":null,"created_at":"2014-11-14T11:54:45.000Z","updated_at":"2014-11-14T12:21:47.000Z"},{"id":2612,"name":"Tøjeksperten","street":"v/Claus Nielsen \u0026 Sv. E.Skøtt Østergade 4­6","zip_city":" 6520 Toftlund","phone":"74831700","email":null,"lng_lat":"55.188494,9.068543000000002","body":null,"created_at":"2014-11-14T11:54:45.000Z","updated_at":"2014-11-14T12:21:53.000Z"},{"id":2613,"name":"Tøjeksperten Gridsted X­RAY","street":"Vesterbrogade 5","zip_city":" 7200 Grindsted","phone":"75320410","email":null,"lng_lat":"55.75633389999999,8.9273311","body":null,"created_at":"2014-11-14T11:54:45.000Z","updated_at":"2014-11-14T12:21:58.000Z"},{"id":2614,"name":"Tøjeksperten Grindsted","street":"Vesterbrogade 2","zip_city":" 7200 Grindste","phone":"75320111","email":null,"lng_lat":"55.7565245,8.9269886","body":null,"created_at":"2014-11-14T11:54:45.000Z","updated_at":"2014-11-14T12:22:03.000Z"},{"id":2615,"name":"Tøjeksperten Herning","street":"Bredgade 37­39","zip_city":" 7400 Herning","phone":"97120322","email":null,"lng_lat":null,"body":null,"created_at":"2014-11-14T11:54:45.000Z","updated_at":"2014-11-14T11:54:45.000Z"},{"id":2616,"name":"Tøjeksperten Hornslet","street":"Byvej 5","zip_city":" 8543 Hornsle","phone":"86994644","email":null,"lng_lat":"56.316233,10.320181","body":null,"created_at":"2014-11-14T11:54:45.000Z","updated_at":"2014-11-14T12:22:14.000Z"},{"id":2617,"name":"Tøjeksperten Ikast","street":"Strøget 16","zip_city":" 7430 Ikast","phone":"97151338","email":null,"lng_lat":"56.140586,9.155014999999999","body":null,"created_at":"2014-11-14T11:54:45.000Z","updated_at":"2014-11-14T12:22:19.000Z"},{"id":2618,"name":"Tøjeksperten Kolding","street":"Helligkorsgade 7","zip_city":" 6000 Koldin","phone":"75521585","email":null,"lng_lat":"55.489088,9.473536","body":null,"created_at":"2014-11-14T11:54:45.000Z","updated_at":"2014-11-14T12:22:24.000Z"},{"id":2619,"name":"Tøjeksperten Lemvig","street":"Vestergade 8","zip_city":" 7620 Lemvig","phone":"97810011","email":null,"lng_lat":"56.55001559999999,8.307979699999999","body":null,"created_at":"2014-11-14T11:54:45.000Z","updated_at":"2014-11-14T12:22:29.000Z"},{"id":2620,"name":"Tøjeksperten Odder","street":"Rosensgade 18","zip_city":" 8300 Odde","phone":"86540449","email":null,"lng_lat":"55.9725497,10.1466166","body":null,"created_at":"2014-11-14T11:54:45.000Z","updated_at":"2014-11-14T12:22:35.000Z"},{"id":2621,"name":"Tøjeksperten Raahauge Aps","street":"v/Torben Sørensen Frederiksgade 53","zip_city":" 8100 Aarhus C","phone":"86126868","email":null,"lng_lat":null,"body":null,"created_at":"2014-11-14T11:54:45.000Z","updated_at":"2014-11-14T11:54:45.000Z"},{"id":2622,"name":"Tøjeksperten Sakskøbing","street":"Søndergade 20","zip_city":" 4990 Sakskøbin","phone":"54704495","email":null,"lng_lat":"54.79812219999999,11.6370527","body":null,"created_at":"2014-11-14T11:54:45.000Z","updated_at":"2014-11-14T12:22:45.000Z"},{"id":2623,"name":"Tøjeksperten Viborg","street":"Vestergade 20","zip_city":" 8800 Viborg","phone":"86620144","email":null,"lng_lat":"56.450549,9.408674","body":null,"created_at":"2014-11-14T11:54:45.000Z","updated_at":"2014-11-14T12:22:50.000Z"},{"id":2624,"name":"Tøjkrogen","street":"V/Detailgruppen A/S Kolind Midtpunkt 9","zip_city":" 8560 Kolind","phone":"86392011","email":null,"lng_lat":"56.361085,10.589174","body":null,"created_at":"2014-11-14T11:54:45.000Z","updated_at":"2014-11-14T12:22:55.000Z"},{"id":2625,"name":"Tønder Shoppingcenter","street":"v/Jonna Nielsen Kærgårdsvej 6","zip_city":" 6270 Tønder DK","phone":"74724126","email":null,"lng_lat":"54.9501772,8.873816099999999","body":null,"created_at":"2014-11-14T11:54:45.000Z","updated_at":"2014-11-14T12:23:01.000Z"},{"id":2626,"name":"Unik","street":"v/Pia Munkholm Vestergade 16","zip_city":" 9300 Sæby DK","phone":"30869434","email":null,"lng_lat":"57.334387,10.516675","body":null,"created_at":"2014-11-14T11:54:45.000Z","updated_at":"2014-11-14T12:23:06.000Z"},{"id":2627,"name":"V.M. Herreekvipering I/S","street":"Merkurvej 16","zip_city":" 7400 Herning","phone":"97220320","email":null,"lng_lat":"56.1352328,8.9992928","body":null,"created_at":"2014-11-14T11:54:45.000Z","updated_at":"2014-11-14T12:23:11.000Z"},{"id":2628,"name":"Valentina","street":"v/Tina H. Valentin Bispegade 2","zip_city":" 6100 Haderslev","phone":"74524647","email":null,"lng_lat":"55.2499062,9.486633000000001","body":null,"created_at":"2014-11-14T11:54:45.000Z","updated_at":"2014-11-14T12:23:16.000Z"},{"id":2629,"name":"Vestbyens Herretøj ApS","street":"Vejlevej 34","zip_city":" 7000 Fredericia","phone":"75927345","email":null,"lng_lat":"55.569623,9.719818","body":null,"created_at":"2014-11-14T11:54:45.000Z","updated_at":"2014-11-14T12:23:21.000Z"},{"id":2630,"name":"Viktor \u0026 Holger ApS","street":"Jeppe Åkjærsvej 5","zip_city":" 8620 Kjellerup","phone":"86802275","email":null,"lng_lat":"56.284643,9.435532","body":null,"created_at":"2014-11-14T11:54:45.000Z","updated_at":"2014-11-14T12:23:26.000Z"},{"id":2631,"name":"Vos \u0026 Co.","street":"V/Marga Voss Torvet 4","zip_city":" 4690 Haslev","phone":"56312172","email":null,"lng_lat":"55.326684,11.9641364","body":null,"created_at":"2014-11-14T11:54:45.000Z","updated_at":"2014-11-14T12:23:32.000Z"},{"id":2632,"name":"Wagner","street":"v/Viveterp Beklædning ApS Søndergade 10","zip_city":" 8700 Horsens","phone":"75622966","email":null,"lng_lat":"55.8617961,9.846089","body":null,"created_at":"2014-11-14T11:54:45.000Z","updated_at":"2014-11-14T12:23:37.000Z"},{"id":2633,"name":"Wagner","street":"v/BVS Beklædning ApS Jernbanegade 14","zip_city":" 4800 Nykøbing F","phone":"54850242","email":null,"lng_lat":"54.76635410000001,11.8707737","body":null,"created_at":"2014-11-14T11:54:45.000Z","updated_at":"2014-11-14T12:23:42.000Z"},{"id":2634,"name":"Wagner","street":"v/Per Hansen Bredgade 18","zip_city":" 7400 Herning","phone":"96290626","email":null,"lng_lat":"56.1362609,8.9725226","body":null,"created_at":"2014-11-14T11:54:45.000Z","updated_at":"2014-11-14T12:23:47.000Z"},{"id":2635,"name":"Wagner","street":"Søndergade 53","zip_city":" 4900 Nakskov￼","phone":"54954453","email":null,"lng_lat":"54.82969550000001,11.1400667","body":null,"created_at":"2014-11-14T11:54:45.000Z","updated_at":"2014-11-14T12:23:52.000Z"},{"id":2636,"name":"Wagner","street":"v/Wagner Detail I/S Perlegade 48","zip_city":" 6400 Sønderborg","phone":"72454596","email":null,"lng_lat":"54.912381,9.7928219","body":null,"created_at":"2014-11-14T11:54:45.000Z","updated_at":"2014-11-14T12:23:57.000Z"},{"id":2637,"name":"Wagner Tønder","street":"Vestergade 18","zip_city":" 6270 Tønder","phone":"74721478","email":null,"lng_lat":"54.9347052,8.8673665","body":null,"created_at":"2014-11-14T11:54:45.000Z","updated_at":"2014-11-14T12:24:02.000Z"},{"id":2638,"name":"Wagner Aabenraa","street":"Storegade 13","zip_city":" 6200 Aabenraa","phone":"72454480","email":null,"lng_lat":"55.0442158,9.418957299999999","body":null,"created_at":"2014-11-14T11:54:45.000Z","updated_at":"2014-11-14T12:24:08.000Z"},{"id":2639,"name":"Young Ones","street":"V/Winnie Larsen Torvet 3","zip_city":" 8600 Silkeborg DK","phone":null,"email":null,"lng_lat":"56.169527,9.5489029","body":null,"created_at":"2014-11-14T11:54:45.000Z","updated_at":"2014-11-14T12:24:13.000Z"},{"id":2640,"name":"Youngsters","street":"v/Anita Sønderby Sørensen Østergade 26","zip_city":" 8450 Hammel DK","phone":"27373905","email":null,"lng_lat":"56.2567578,9.866996","body":null,"created_at":"2014-11-14T11:54:45.000Z","updated_at":"2014-11-14T12:24:18.000Z"},{"id":2641,"name":"Youth Fields IVS","street":"Arne Jacobsens Allé 12","zip_city":"2300 København S","phone":"32620204","email":null,"lng_lat":"55.6309809,12.5757921","body":null,"created_at":"2014-11-14T11:54:45.000Z","updated_at":"2014-11-14T12:24:23.000Z"},{"id":2642,"name":"Zoom","street":"v/Meri Piliposian Søndertorv 2","zip_city":" 7100 Vejle","phone":"88180770","email":null,"lng_lat":"55.7049977,9.5320007","body":null,"created_at":"2014-11-14T11:54:45.000Z","updated_at":"2014-11-14T12:24:28.000Z"},{"id":2643,"name":"Zoom","street":"Meri Piliposian Vestergade 22","zip_city":" 6500 Vojens","phone":"74541446","email":null,"lng_lat":"55.24603639999999,9.301003","body":null,"created_at":"2014-11-14T11:54:45.000Z","updated_at":"2014-11-14T12:24:33.000Z"},{"id":2644,"name":"ØnskeBørn","street":"v/Vibeke Nagel Sønderport 69","zip_city":" 6200 Aabenraa","phone":null,"email":null,"lng_lat":"55.03547589999999,9.4200391","body":null,"created_at":"2014-11-14T11:54:45.000Z","updated_at":"2014-11-14T12:24:39.000Z"},{"id":2645,"name":"ØnskeBørn Ringkøbing ApS","street":"Skaadsmosevej 15","zip_city":" 6950 Ringkøbing","phone":"73219081","email":null,"lng_lat":"56.08552299999999,8.2744816","body":null,"created_at":"2014-11-14T11:54:45.000Z","updated_at":"2014-11-14T12:24:44.000Z"},{"id":2646,"name":"Ønskebørn Aabenraa ApS","street":"Tøndervej 1 B","zip_city":"6200 Aabenraa","phone":null,"email":null,"lng_lat":"55.034803,9.417778499999999","body":null,"created_at":"2014-11-14T11:54:45.000Z","updated_at":"2014-11-14T12:24:49.000Z"},{"id":2647,"name":"Baby­Vest A/S","street":"Gartnerivej 44","zip_city":"7500 Holstebro","phone":"97422850","email":null,"lng_lat":"56.3805562,8.612348599999999","body":null,"created_at":"2014-11-14T11:54:45.000Z","updated_at":"2014-11-14T12:24:54.000Z"},{"id":2648,"name":"Baby­Vest A/S","street":"Åboulevarden 55","zip_city":" 6880 Tarm","phone":"97373055","email":null,"lng_lat":"55.915209,8.518191","body":null,"created_at":"2014-11-14T11:54:45.000Z","updated_at":"2014-11-14T12:24:59.000Z"},{"id":2649,"name":"Basis Børnetøj","street":"Annette Harding Banegårdsgade 14","zip_city":" 8300 Odder","phone":"23713296","email":null,"lng_lat":"55.9708665,10.1491514","body":null,"created_at":"2014-11-14T11:54:45.000Z","updated_at":"2014-11-14T12:25:04.000Z"},{"id":2650,"name":"Boom ApS","street":"Fruerlundvej 1","zip_city":" 9560 Hadsund","phone":"40295849","email":null,"lng_lat":"56.7916688,10.2736203","body":null,"created_at":"2014-11-14T11:54:45.000Z","updated_at":"2014-11-14T12:25:10.000Z"},{"id":2651,"name":"Frede \u0026 Rikke","street":"v/Lene Hedeby Butikstorvet 4","zip_city":" 7190 Billund","phone":"75331421","email":null,"lng_lat":"55.73045399999999,9.116460000000002","body":null,"created_at":"2014-11-14T11:54:45.000Z","updated_at":"2014-11-14T12:25:15.000Z"},{"id":2652,"name":"Frelex dk","street":"Bredgade 28","zip_city":" 5560 Aarup","phone":"26748567","email":null,"lng_lat":"55.3807882,10.0488082","body":null,"created_at":"2014-11-14T11:54:45.000Z","updated_at":"2014-11-14T12:25:20.000Z"},{"id":2653,"name":"From \u0026 Fræk","street":"v/Mette Knudsen Bagsværd Hovedgade 131","zip_city":" 2880 Bagsværd DK","phone":"44660644","email":null,"lng_lat":"55.7610241,12.4517598","body":null,"created_at":"2014-11-14T11:54:45.000Z","updated_at":"2014-11-14T12:25:25.000Z"},{"id":2654,"name":"Hos Dorthea","street":"v/Dorthea Amdi Vestergade 7","zip_city":" 7323 Give","phone":"29446771","email":null,"lng_lat":"55.84470959999999,9.236218800000001","body":null,"created_at":"2014-11-14T11:54:45.000Z","updated_at":"2014-11-14T12:25:30.000Z"},{"id":2655,"name":"Hos Mormor","street":"Sandøvej 8","zip_city":" 8700 Horsens","phone":"26378583","email":null,"lng_lat":"55.8565346,9.811629600000002","body":null,"created_at":"2014-11-14T11:54:45.000Z","updated_at":"2014-11-14T12:25:35.000Z"},{"id":2656,"name":"Just 4us Between ApS","street":"Egedal Centret 43","zip_city":" 3660 Stenløse","phone":"32140505","email":null,"lng_lat":"55.76831259999999,12.1929582","body":null,"created_at":"2014-11-14T11:54:45.000Z","updated_at":"2014-11-14T12:25:41.000Z"},{"id":2657,"name":"Kids´n Fun","street":"v/Lotte Lauritsen Skomagergade 1","zip_city":" 9240 Nibe DK","phone":"28699359","email":null,"lng_lat":"56.981841,9.636880999999999","body":null,"created_at":"2014-11-14T11:54:45.000Z","updated_at":"2014-11-14T12:25:46.000Z"},{"id":2658,"name":"Korsbakke \u0026 Ko ApS","street":"Søndergade 11","zip_city":" 8620 Kjellerup","phone":"87244002","email":null,"lng_lat":"56.28881519999999,9.4306214","body":null,"created_at":"2014-11-14T11:54:45.000Z","updated_at":"2014-11-14T12:25:51.000Z"},{"id":2659,"name":"Kræs","street":"v/Mette Thor Østergade 26","zip_city":" 5900 Rudkøbing","phone":"40425636","email":null,"lng_lat":"54.935569,10.713269","body":null,"created_at":"2014-11-14T11:54:45.000Z","updated_at":"2014-11-14T12:25:56.000Z"},{"id":2660,"name":"Kære Børn","street":"v/Hans Peter Laugesen Hedevej 3","zip_city":" 6740 Bramming","phone":"75457188","email":null,"lng_lat":"55.459688,8.711504","body":null,"created_at":"2014-11-14T11:54:45.000Z","updated_at":"2014-11-14T12:26:02.000Z"},{"id":2661,"name":"Kære Børn","street":"Overbølgen 21E 2670 Greve","zip_city":" 6740 Bramming","phone":"44682110","email":null,"lng_lat":"55.46917699999999,8.701654999999999","body":null,"created_at":"2014-11-14T11:54:45.000Z","updated_at":"2014-11-14T12:26:07.000Z"},{"id":2662,"name":"Kære Børn/ Mor \u0026 Barn","street":"v/Hans Peter Laugesen Albuen 3","zip_city":" 6000 Kolding DK","phone":"27147158","email":null,"lng_lat":"55.516659,9.456399","body":null,"created_at":"2014-11-14T11:54:45.000Z","updated_at":"2014-11-14T12:26:12.000Z"},{"id":2663,"name":"Louise Søs","street":"v/Britta Petersen Riberholm Bredgade 11","zip_city":" 8722 Hedensted","phone":"22639449","email":null,"lng_lat":"55.7701784,9.6971907","body":null,"created_at":"2014-11-14T11:54:45.000Z","updated_at":"2014-11-14T12:26:17.000Z"},{"id":2664,"name":"Marie Marolle","street":"v/Annemarie Elgstrøm Øster Torv 2","zip_city":" 3060 Espergærde DK","phone":"49131732","email":null,"lng_lat":"55.9945732,12.5454454","body":null,"created_at":"2014-11-14T11:54:45.000Z","updated_at":"2014-11-14T12:26:22.000Z"},{"id":2665,"name":"Max og Mini ApS","street":"Rådhuscentret 15 C","zip_city":" 6500 Vojens","phone":"28685901","email":null,"lng_lat":"55.2448775,9.292907","body":null,"created_at":"2014-11-14T11:54:45.000Z","updated_at":"2014-11-14T12:26:27.000Z"},{"id":2666,"name":"Miss Butterfly","street":"v/A. Rasmussen Kettingevej 57","zip_city":" 4892 Kettinge","phone":"21916263","email":null,"lng_lat":"54.696856,11.734746","body":null,"created_at":"2014-11-14T11:54:45.000Z","updated_at":"2014-11-14T12:26:33.000Z"},{"id":2667,"name":"New Bibi ApS ­ Konkurs","street":"v/Anne­Mette Schulze Pettersson Hovedgaden 10","zip_city":" 2970 Hørsholm","phone":"45862159","email":null,"lng_lat":"55.8791248,12.4986143","body":null,"created_at":"2014-11-14T11:54:45.000Z","updated_at":"2014-11-14T12:26:38.000Z"},{"id":2668,"name":"No 1 Kids.dk","street":"Ishøj Vestergade 9","zip_city":" 2635 Ishøj","phone":"27828386","email":null,"lng_lat":"55.61407699999999,12.3552082","body":null,"created_at":"2014-11-14T11:54:45.000Z","updated_at":"2014-11-14T12:26:43.000Z"},{"id":2669,"name":"One Two Børne Shop ApS","street":"Østergade 19","zip_city":" 5610 Assens","phone":"64713613","email":null,"lng_lat":"55.2700578,9.8951774","body":null,"created_at":"2014-11-14T11:54:45.000Z","updated_at":"2014-11-14T12:26:48.000Z"},{"id":2670,"name":"Prinsen \u0026 Prinsessen","street":"v/Bogladen Kongensgade 10","zip_city":" 3550 Slangerup DK","phone":"47334013","email":null,"lng_lat":"55.845414,12.1722235","body":null,"created_at":"2014-11-14T11:54:45.000Z","updated_at":"2014-11-14T12:26:53.000Z"},{"id":2671,"name":"Rappe Rollinger I/S","street":"v/Heidi Nørbæk Ove Jensens Alle 2","zip_city":" 8700 Horsens","phone":"75610506","email":null,"lng_lat":"55.860354,9.84656","body":null,"created_at":"2014-11-14T11:54:45.000Z","updated_at":"2014-11-14T12:26:59.000Z"},{"id":2672,"name":"Rød og Hvid","street":"v/Textil Bloch ApS Kongensgade 24­26","zip_city":" 6700 Esbjerg DK","phone":"75121844","email":null,"lng_lat":"55.483477,8.4446117","body":null,"created_at":"2014-11-14T11:54:45.000Z","updated_at":"2014-11-14T12:27:04.000Z"},{"id":2673,"name":"Savannah Kids Hjørring (lukket)","street":"v/Leila Grønkjær Nielsen Nørregade 11","zip_city":" 9850 Hirtshals DK","phone":"22584262","email":null,"lng_lat":"57.58999710000001,9.9574391","body":null,"created_at":"2014-11-14T11:54:45.000Z","updated_at":"2014-11-14T12:27:09.000Z"},{"id":2674,"name":"Seje Unger (må ikke bruges)","street":"Østergade 9","zip_city":" 8600 Silkeborg","phone":null,"email":null,"lng_lat":"56.1705025,9.5512494","body":null,"created_at":"2014-11-14T11:54:45.000Z","updated_at":"2014-11-14T12:27:14.000Z"},{"id":2675,"name":"Shorty I/S","street":"Nørregade 11","zip_city":" 3300 Frederiksværk","phone":"47772818","email":null,"lng_lat":"55.97395849999999,12.0207245","body":null,"created_at":"2014-11-14T11:54:45.000Z","updated_at":"2014-11-14T12:27:19.000Z"},{"id":2676,"name":"TJX Europe Buying Ltd.","street":"50 Clarendon Road Watford Herts","zip_city":" WD 17 1.TX Great Britain","phone":null,"email":null,"lng_lat":"51.660598,-0.3966638","body":null,"created_at":"2014-11-14T11:54:45.000Z","updated_at":"2014-11-14T12:27:25.000Z"},{"id":2677,"name":"Tøj til Trolde","street":"v/Butik K ApS Godthåbsvej 2","zip_city":" 2000 Frederiksberg","phone":"20121329","email":null,"lng_lat":"55.6854946,12.5383691","body":null,"created_at":"2014-11-14T11:54:45.000Z","updated_at":"2014-11-14T12:27:30.000Z"},{"id":2678,"name":"Vildbasser","street":"V/Githa Åxman Andersen","zip_city":" 3390 Hundested","phone":"22171867","email":null,"lng_lat":"55.967747,11.858962","body":null,"created_at":"2014-11-14T11:54:45.000Z","updated_at":"2014-11-14T12:27:35.000Z"},{"id":2679,"name":"Young Ones","street":"v/Hansen \u0026 Nissen Jessensgade 12","zip_city":" 8700 Horsens","phone":"75627322","email":null,"lng_lat":"55.861892,9.845043000000002","body":null,"created_at":"2014-11-14T11:54:45.000Z","updated_at":"2014-11-14T12:27:40.000Z"},{"id":2680,"name":"Ønske Børn­15091","street":"v/F og G Invest A/S Gudrunsvej 7","zip_city":" 8220 Brabrand","phone":null,"email":null,"lng_lat":"56.15513199999999,10.1348","body":null,"created_at":"2014-11-14T11:54:45.000Z","updated_at":"2014-11-14T12:27:45.000Z"},{"id":2681,"name":"Ønske Frøen","street":"v/Birgitte Thorsgaard Storegade 27","zip_city":" 4180 Sorø DK","phone":"51720299","email":null,"lng_lat":"55.442645,11.5609369","body":null,"created_at":"2014-11-14T11:54:45.000Z","updated_at":"2014-11-14T12:27:50.000Z"},{"id":2682,"name":"ØnskeBørn","street":"Konsul Andersensgade 4","zip_city":" 7620 Lemvig","phone":null,"email":null,"lng_lat":"56.5489632,8.3081245","body":null,"created_at":"2014-11-14T11:54:45.000Z","updated_at":"2014-11-14T12:27:56.000Z"},{"id":2683,"name":"ØnskeBørn","street":"v/Vini og Bo Kristiansen venusvej 10 A","zip_city":" 7000 Fredericia DK","phone":"59208671","email":null,"lng_lat":"55.567896,9.720246","body":null,"created_at":"2014-11-14T11:54:45.000Z","updated_at":"2014-11-14T12:28:01.000Z"},{"id":2684,"name":"ØnskeBørn","street":"V/Ønskebørn Retail ApS Øster Gjesingvej 9","zip_city":" 6715 Esbjerg N DK","phone":"75124511","email":null,"lng_lat":"55.53981719999999,8.5174649","body":null,"created_at":"2014-11-14T11:54:45.000Z","updated_at":"2014-11-14T12:28:06.000Z"},{"id":2685,"name":"ØnskeBørn","street":"v/S \u0026 R Holding ApS Rugvænget 19","zip_city":" 8500 Grenå DK","phone":"86327111","email":null,"lng_lat":"56.39680060000001,10.8738489","body":null,"created_at":"2014-11-14T11:54:45.000Z","updated_at":"2014-11-14T12:28:11.000Z"},{"id":2686,"name":"ØnskeBørn","street":"v/Ønskebørn Retail ApS Jomfrustien 25A","zip_city":" 6100 Haderslev DK","phone":"74526767","email":null,"lng_lat":"55.25113340000001,9.494612","body":null,"created_at":"2014-11-14T11:54:45.000Z","updated_at":"2014-11-14T12:28:16.000Z"},{"id":2687,"name":"ØnskeBørn","street":"v/Baby Bjørnen ApS Prøvestensvej 28","zip_city":" 3000 Helsingør DK","phone":"49262112","email":null,"lng_lat":"56.01851079999999,12.570562","body":null,"created_at":"2014-11-14T11:54:45.000Z","updated_at":"2014-11-14T12:28:22.000Z"},{"id":2688,"name":"ØnskeBørn","street":"Absalonsvej 6","zip_city":" 7400 Herning DK","phone":"69141700","email":null,"lng_lat":"56.1342417,9.001496999999999","body":null,"created_at":"2014-11-14T11:54:45.000Z","updated_at":"2014-11-14T12:28:27.000Z"},{"id":2689,"name":"ØnskeBørn","street":"Frederikshavnvej 88","zip_city":" 9800 Hjørring DK","phone":"98903831","email":null,"lng_lat":"57.4555928,10.0161053","body":null,"created_at":"2014-11-14T11:54:45.000Z","updated_at":"2014-11-14T12:28:32.000Z"},{"id":2690,"name":"ØnskeBørn","street":"v/Sten Degn ApS Thurøvej 13","zip_city":" 9500 Hobro DK","phone":"98511388","email":null,"lng_lat":"56.626289,9.805002","body":null,"created_at":"2014-11-14T11:54:45.000Z","updated_at":"2014-11-14T12:28:37.000Z"},{"id":2691,"name":"ØnskeBørn","street":"v/Sten Degn ApS Bastrupgårdvej 1","zip_city":" 7500 Holstebro DK","phone":"98511388","email":null,"lng_lat":"56.382954,8.611996","body":null,"created_at":"2014-11-14T11:54:45.000Z","updated_at":"2014-11-14T12:28:42.000Z"},{"id":2692,"name":"ØnskeBørn","street":"v/Sten Degn ApS Hjermvej 6","zip_city":" 7500 Holstebro DK","phone":"96104488","email":null,"lng_lat":"56.378677,8.620492","body":null,"created_at":"2014-11-14T11:54:45.000Z","updated_at":"2014-11-14T12:28:47.000Z"},{"id":2693,"name":"ØnskeBørn","street":"v/Tage Andersen Holmboes Alle 13","zip_city":" 8700 Horsens","phone":"96104488","email":null,"lng_lat":"55.8570808,9.8475463","body":null,"created_at":"2014-11-14T11:54:45.000Z","updated_at":"2014-11-14T12:28:52.000Z"},{"id":2694,"name":"ØnskeBørn","street":"v/Helle Fisker ApS Siriusvej 7","zip_city":" 7430 Ikast DK","phone":"97152701","email":null,"lng_lat":"56.13771389999999,9.1387327","body":null,"created_at":"2014-11-14T11:54:45.000Z","updated_at":"2014-11-14T12:28:58.000Z"},{"id":2695,"name":"ØnskeBørn","street":"v/Klarup Isenkram A/S Jørgensmindevej 20","zip_city":" 9270 Klarup DK","phone":"98318888","email":null,"lng_lat":"57.018283,10.046574","body":null,"created_at":"2014-11-14T11:54:45.000Z","updated_at":"2014-11-14T12:29:03.000Z"},{"id":2696,"name":"ØnskeBørn","street":"v/Ønskebørn NV ApS Frederiksborgvej 13","zip_city":" 2400 København NV DK","phone":"38332401","email":null,"lng_lat":"55.702725,12.5330359","body":null,"created_at":"2014-11-14T11:54:45.000Z","updated_at":"2014-11-14T12:29:08.000Z"},{"id":2697,"name":"ØnskeBørn","street":"v/iris S. Winkel","zip_city":" 2400 København NV DK","phone":"97811130","email":null,"lng_lat":"55.714619,12.5287294","body":null,"created_at":"2014-11-14T11:54:45.000Z","updated_at":"2014-11-14T12:29:13.000Z"},{"id":2698,"name":"ØnskeBørn","street":"v/Barnevognscentralen Horsens ApS Holmboes Alle 13","zip_city":" 8700 Horsens DK","phone":"75648388","email":null,"lng_lat":"55.8570808,9.8475463","body":null,"created_at":"2014-11-14T11:54:45.000Z","updated_at":"2014-11-14T12:29:18.000Z"},{"id":2699,"name":"ØnskeBørn","street":"Kirkegade 11","zip_city":" 8900 Randers DK","phone":"86407086","email":null,"lng_lat":"56.4596801,10.0342909","body":null,"created_at":"2014-11-14T11:54:45.000Z","updated_at":"2014-11-14T12:29:23.000Z"},{"id":2700,"name":"ØnskeBørn","street":"V/Frank Hansen Kirkegade 9­11","zip_city":" 8900 Randers","phone":"64070861","email":null,"lng_lat":"56.4635786,10.0344155","body":null,"created_at":"2014-11-14T11:54:45.000Z","updated_at":"2014-11-14T12:29:29.000Z"},{"id":2701,"name":"ØnskeBørn","street":"v/Thorstein Schultz J.Lauritzens Plads 14­16","zip_city":" 6760 Ribe DK","phone":"75423211","email":null,"lng_lat":"55.326936,8.774665","body":null,"created_at":"2014-11-14T11:54:45.000Z","updated_at":"2014-11-14T12:29:34.000Z"},{"id":2702,"name":"ØnskeBørn","street":"v/Gitte Thomsen Rødovre Centrum 268","zip_city":" 2610 Rødovre DK","phone":"69130444","email":null,"lng_lat":"55.6789479,12.4580981","body":null,"created_at":"2014-11-14T11:54:45.000Z","updated_at":"2014-11-14T12:29:39.000Z"},{"id":2703,"name":"ØnskeBørn","street":"v/Sten Degn ApS Navervej 3","zip_city":" 8600 Silkeborg DK","phone":"91486001","email":null,"lng_lat":"56.18261589999999,9.5360362","body":null,"created_at":"2014-11-14T11:54:45.000Z","updated_at":"2014-11-14T12:29:44.000Z"},{"id":2704,"name":"ØnskeBørn","street":"v/Sten Degn Navervej 3","zip_city":" 8600 Silkeborg DK","phone":"69148600","email":null,"lng_lat":"56.18261589999999,9.5360362","body":null,"created_at":"2014-11-14T11:54:45.000Z","updated_at":"2014-11-14T12:29:49.000Z"},{"id":2705,"name":"ØnskeBørn","street":"v/Gitte Thomsen Casinotorvet 6","zip_city":" 4200 Slagelse","phone":"58533226","email":null,"lng_lat":"55.405249,11.35453","body":null,"created_at":"2014-11-14T11:54:45.000Z","updated_at":"2014-11-14T12:29:54.000Z"},{"id":2706,"name":"ØnskeBørn","street":"v/sten Degn ApS Erik Glippings Vej 16","zip_city":" 8800 Viborg DK","phone":"66888881","email":null,"lng_lat":"56.4452688,9.3903351","body":null,"created_at":"2014-11-14T11:54:45.000Z","updated_at":"2014-11-14T12:29:59.000Z"},{"id":2707,"name":"ØnskeBørn","street":"v/Sten Degn Holstenbrovej 81","zip_city":" 8800 Viborg DK","phone":"86688888","email":null,"lng_lat":"56.45202699999999,9.396347","body":null,"created_at":"2014-11-14T11:54:45.000Z","updated_at":"2014-11-14T12:30:05.000Z"},{"id":2708,"name":"ØnskeBørn","street":"v/babyudstyr","zip_city":" Fredericia ApS Venusvej 10a","phone":"75920867","email":null,"lng_lat":null,"body":null,"created_at":"2014-11-14T11:54:45.000Z","updated_at":"2014-11-14T11:54:45.000Z"},{"id":2709,"name":"ØnskeBørn","street":"v/Flower Kidz ApS Eskildsgade 6a","zip_city":" 3720 Aakirkeby DK","phone":"56971172","email":null,"lng_lat":"55.070315,14.922824","body":null,"created_at":"2014-11-14T11:54:45.000Z","updated_at":"2014-11-14T12:30:15.000Z"},{"id":2710,"name":"ØnskeBørn","street":"v/Charlotte Gjøtz Stenbukken 5","zip_city":" 9200 Aalborg SV DK","phone":"98193080","email":null,"lng_lat":"56.9985693,9.8718823","body":null,"created_at":"2014-11-14T11:54:45.000Z","updated_at":"2014-11-14T12:30:20.000Z"},{"id":2711,"name":"ØnskeBørn","street":"v/F og G Invest A/S Gudrunsvej 7","zip_city":" 8220 Brabrand","phone":"86193355","email":null,"lng_lat":"56.15513199999999,10.1348","body":null,"created_at":"2014-11-14T11:54:45.000Z","updated_at":"2014-11-14T12:30:25.000Z"},{"id":2712,"name":"ØnskeBørn A/S","street":"Uraniavej 15","zip_city":" 8700 Horsens","phone":null,"email":null,"lng_lat":"55.83248099999999,9.794065999999999","body":null,"created_at":"2014-11-14T11:54:45.000Z","updated_at":"2014-11-14T12:30:31.000Z"},{"id":2713,"name":"ØnskeBørn ApS","street":"v/Steen Kristiansen Støberivej 2","zip_city":" 4600 Køge DK","phone":"56658390","email":null,"lng_lat":"55.47860730000001,12.1875453","body":null,"created_at":"2014-11-14T11:54:45.000Z","updated_at":"2014-11-14T12:30:36.000Z"},{"id":2714,"name":"ØnskeBørn Frederikssund ApS","street":"v/Gitte \u0026 Pierre Jensen Askelundsvej 2 A","zip_city":" 3600 Frederikssund DK","phone":"47384839","email":null,"lng_lat":"55.84425299999999,12.0747199","body":null,"created_at":"2014-11-14T11:54:45.000Z","updated_at":"2014-11-14T12:30:41.000Z"},{"id":2715,"name":"ØnskeBørn Odense ApS","street":"v/B.Winther Ørbækvej 101","zip_city":" 5220 Odense SØ DK","phone":"65933033","email":null,"lng_lat":"55.3794196,10.4323393","body":null,"created_at":"2014-11-14T11:54:45.000Z","updated_at":"2014-11-14T12:30:46.000Z"},{"id":2716,"name":"ØnskeBørn Ringkøbing ApS","street":"Skaadsmosevej 15","zip_city":" 6950 Ringkøbing","phone":"97321908","email":null,"lng_lat":"56.08552299999999,8.2744816","body":null,"created_at":"2014-11-14T11:54:45.000Z","updated_at":"2014-11-14T12:30:51.000Z"},{"id":2717,"name":"ØnskeBørn Sønderborg ApS","street":"Grundtvigs Alle 173","zip_city":" 6400 Sønderborg DK","phone":"74421142","email":null,"lng_lat":"54.92125799999999,9.808116","body":null,"created_at":"2014-11-14T11:54:45.000Z","updated_at":"2014-11-14T12:30:56.000Z"},{"id":2718,"name":"ØnskeBørn Tilst ApS","street":"Agerøvej 25","zip_city":" 8381 Tilst","phone":"88887415","email":null,"lng_lat":"56.181832,10.111519","body":null,"created_at":"2014-11-14T11:54:45.000Z","updated_at":"2014-11-14T12:31:01.000Z"},{"id":2719,"name":"ØnskeBørn Valby ApS","street":"v/Dan Holk","zip_city":" Gl. Køge Landevej 135","phone":"36442223","email":null,"lng_lat":null,"body":null,"created_at":"2014-11-14T11:54:45.000Z","updated_at":"2014-11-14T11:54:45.000Z"},{"id":2720,"name":"ØnskeBørn Aabenraa ApS","street":"v/Vibeke Knudsen Tøndervej 1","zip_city":" 6200 Aabenraa DK","phone":"73625050","email":null,"lng_lat":"55.034803,9.417778499999999","body":null,"created_at":"2014-11-14T11:54:45.000Z","updated_at":"2014-11-14T12:31:12.000Z"}]